[
  {
    "code": "110101",
    "name": "东城区",
    "province_code": "110100",
    "province_name": "北京市",
    "city_code": "110100",
    "city_name": "北京市",
    "lon": "116.429125",
    "lat": "39.903664",
    "type": 3
  },
  {
    "code": "110102",
    "name": "西城区",
    "province_code": "110100",
    "province_name": "北京市",
    "city_code": "110100",
    "city_name": "北京市",
    "lon": "116.321665",
    "lat": "39.893128",
    "type": 3
  },
  {
    "code": "110105",
    "name": "朝阳区",
    "province_code": "110100",
    "province_name": "北京市",
    "city_code": "110100",
    "city_name": "北京市",
    "lon": "116.465174",
    "lat": "39.969212",
    "type": 3
  },
  {
    "code": "110106",
    "name": "丰台区",
    "province_code": "110100",
    "province_name": "北京市",
    "city_code": "110100",
    "city_name": "北京市",
    "lon": "116.288534",
    "lat": "39.857426",
    "type": 3
  },
  {
    "code": "110107",
    "name": "石景山区",
    "province_code": "110100",
    "province_name": "北京市",
    "city_code": "110100",
    "city_name": "北京市",
    "lon": "116.222273",
    "lat": "39.906429",
    "type": 3
  },
  {
    "code": "110108",
    "name": "海淀区",
    "province_code": "110100",
    "province_name": "北京市",
    "city_code": "110100",
    "city_name": "北京市",
    "lon": "116.297117",
    "lat": "39.961186",
    "type": 3
  },
  {
    "code": "110109",
    "name": "门头沟区",
    "province_code": "110100",
    "province_name": "北京市",
    "city_code": "110100",
    "city_name": "北京市",
    "lon": "116.105543",
    "lat": "39.943816",
    "type": 3
  },
  {
    "code": "110111",
    "name": "房山区",
    "province_code": "110100",
    "province_name": "北京市",
    "city_code": "110100",
    "city_name": "北京市",
    "lon": "116.142622",
    "lat": "39.748230",
    "type": 3
  },
  {
    "code": "110112",
    "name": "通州区",
    "province_code": "110100",
    "province_name": "北京市",
    "city_code": "110100",
    "city_name": "北京市",
    "lon": "116.663442",
    "lat": "39.906824",
    "type": 3
  },
  {
    "code": "110113",
    "name": "顺义区",
    "province_code": "110100",
    "province_name": "北京市",
    "city_code": "110100",
    "city_name": "北京市",
    "lon": "116.660009",
    "lat": "40.128738",
    "type": 3
  },
  {
    "code": "110114",
    "name": "昌平区",
    "province_code": "110100",
    "province_name": "北京市",
    "city_code": "110100",
    "city_name": "北京市",
    "lon": "116.239267",
    "lat": "40.220553",
    "type": 3
  },
  {
    "code": "110115",
    "name": "大兴区",
    "province_code": "110100",
    "province_name": "北京市",
    "city_code": "110100",
    "city_name": "北京市",
    "lon": "116.335054",
    "lat": "39.727770",
    "type": 3
  },
  {
    "code": "110116",
    "name": "怀柔区",
    "province_code": "110100",
    "province_name": "北京市",
    "city_code": "110100",
    "city_name": "北京市",
    "lon": "116.637178",
    "lat": "40.314860",
    "type": 3
  },
  {
    "code": "110117",
    "name": "平谷区",
    "province_code": "110100",
    "province_name": "北京市",
    "city_code": "110100",
    "city_name": "北京市",
    "lon": "117.129589",
    "lat": "40.133791",
    "type": 3
  },
  {
    "code": "110118",
    "name": "密云区",
    "province_code": "110100",
    "province_name": "北京市",
    "city_code": "110100",
    "city_name": "北京市",
    "lon": "116.870938",
    "lat": "40.375338",
    "type": 3
  },
  {
    "code": "110119",
    "name": "延庆区",
    "province_code": "110100",
    "province_name": "北京市",
    "city_code": "110100",
    "city_name": "北京市",
    "lon": "115.973235",
    "lat": "40.463259",
    "type": 3
  },
  {
    "code": "120101",
    "name": "和平区",
    "province_code": "120100",
    "province_name": "天津市",
    "city_code": "120100",
    "city_name": "天津市",
    "lon": "117.214510",
    "lat": "39.116949",
    "type": 3
  },
  {
    "code": "120102",
    "name": "河东区",
    "province_code": "120100",
    "province_name": "天津市",
    "city_code": "120100",
    "city_name": "天津市",
    "lon": "117.273518",
    "lat": "39.145877",
    "type": 3
  },
  {
    "code": "120103",
    "name": "河西区",
    "province_code": "120100",
    "province_name": "天津市",
    "city_code": "120100",
    "city_name": "天津市",
    "lon": "117.246610",
    "lat": "39.057989",
    "type": 3
  },
  {
    "code": "120104",
    "name": "南开区",
    "province_code": "120100",
    "province_name": "天津市",
    "city_code": "120100",
    "city_name": "天津市",
    "lon": "117.166831",
    "lat": "39.104328",
    "type": 3
  },
  {
    "code": "120105",
    "name": "河北区",
    "province_code": "120100",
    "province_name": "天津市",
    "city_code": "120100",
    "city_name": "天津市",
    "lon": "117.197386",
    "lat": "39.147874",
    "type": 3
  },
  {
    "code": "120106",
    "name": "红桥区",
    "province_code": "120100",
    "province_name": "天津市",
    "city_code": "120100",
    "city_name": "天津市",
    "lon": "117.149729",
    "lat": "39.160936",
    "type": 3
  },
  {
    "code": "120110",
    "name": "东丽区",
    "province_code": "120100",
    "province_name": "天津市",
    "city_code": "120100",
    "city_name": "天津市",
    "lon": "117.314350",
    "lat": "39.086661",
    "type": 3
  },
  {
    "code": "120111",
    "name": "西青区",
    "province_code": "120100",
    "province_name": "天津市",
    "city_code": "120100",
    "city_name": "天津市",
    "lon": "117.008873",
    "lat": "39.141145",
    "type": 3
  },
  {
    "code": "120112",
    "name": "津南区",
    "province_code": "120100",
    "province_name": "天津市",
    "city_code": "120100",
    "city_name": "天津市",
    "lon": "117.357396",
    "lat": "38.937857",
    "type": 3
  },
  {
    "code": "120113",
    "name": "北辰区",
    "province_code": "120100",
    "province_name": "天津市",
    "city_code": "120100",
    "city_name": "天津市",
    "lon": "117.132439",
    "lat": "39.221484",
    "type": 3
  },
  {
    "code": "120114",
    "name": "武清区",
    "province_code": "120100",
    "province_name": "天津市",
    "city_code": "120100",
    "city_name": "天津市",
    "lon": "117.044413",
    "lat": "39.383263",
    "type": 3
  },
  {
    "code": "120115",
    "name": "宝坻区",
    "province_code": "120100",
    "province_name": "天津市",
    "city_code": "120100",
    "city_name": "天津市",
    "lon": "117.309819",
    "lat": "39.717575",
    "type": 3
  },
  {
    "code": "120116",
    "name": "滨海新区",
    "province_code": "120100",
    "province_name": "天津市",
    "city_code": "120100",
    "city_name": "天津市",
    "lon": "117.710776",
    "lat": "39.003677",
    "type": 3
  },
  {
    "code": "120117",
    "name": "宁河区",
    "province_code": "120100",
    "province_name": "天津市",
    "city_code": "120100",
    "city_name": "天津市",
    "lon": "117.824898",
    "lat": "39.330613",
    "type": 3
  },
  {
    "code": "120118",
    "name": "静海区",
    "province_code": "120100",
    "province_name": "天津市",
    "city_code": "120100",
    "city_name": "天津市",
    "lon": "116.974253",
    "lat": "38.947527",
    "type": 3
  },
  {
    "code": "120119",
    "name": "蓟州区",
    "province_code": "120100",
    "province_name": "天津市",
    "city_code": "120100",
    "city_name": "天津市",
    "lon": "117.408279",
    "lat": "40.045865",
    "type": 3
  },
  {
    "code": "130102",
    "name": "长安区",
    "province_code": "130000",
    "province_name": "河北省",
    "city_code": "130100",
    "city_name": "石家庄市",
    "lon": "114.539060",
    "lat": "38.036654",
    "type": 3
  },
  {
    "code": "130103",
    "name": "桥东区",
    "province_code": "130000",
    "province_name": "河北省",
    "city_code": "130100",
    "city_name": "石家庄市",
    "lon": "114.518440",
    "lat": "38.055257",
    "type": 3
  },
  {
    "code": "130104",
    "name": "桥西区",
    "province_code": "130000",
    "province_name": "河北省",
    "city_code": "130100",
    "city_name": "石家庄市",
    "lon": "114.461072",
    "lat": "38.004041",
    "type": 3
  },
  {
    "code": "130105",
    "name": "新华区",
    "province_code": "130000",
    "province_name": "河北省",
    "city_code": "130100",
    "city_name": "石家庄市",
    "lon": "114.463107",
    "lat": "38.050907",
    "type": 3
  },
  {
    "code": "130107",
    "name": "井陉矿区",
    "province_code": "130000",
    "province_name": "河北省",
    "city_code": "130100",
    "city_name": "石家庄市",
    "lon": "114.063409",
    "lat": "38.065668",
    "type": 3
  },
  {
    "code": "130108",
    "name": "裕华区",
    "province_code": "130000",
    "province_name": "河北省",
    "city_code": "130100",
    "city_name": "石家庄市",
    "lon": "114.531361",
    "lat": "38.006453",
    "type": 3
  },
  {
    "code": "130109",
    "name": "藁城区",
    "province_code": "130000",
    "province_name": "河北省",
    "city_code": "130100",
    "city_name": "石家庄市",
    "lon": "114.847075",
    "lat": "38.021567",
    "type": 3
  },
  {
    "code": "130110",
    "name": "鹿泉区",
    "province_code": "130000",
    "province_name": "河北省",
    "city_code": "130100",
    "city_name": "石家庄市",
    "lon": "114.313672",
    "lat": "38.084443",
    "type": 3
  },
  {
    "code": "130111",
    "name": "栾城区",
    "province_code": "130000",
    "province_name": "河北省",
    "city_code": "130100",
    "city_name": "石家庄市",
    "lon": "114.662909",
    "lat": "37.913608",
    "type": 3
  },
  {
    "code": "130121",
    "name": "井陉县",
    "province_code": "130000",
    "province_name": "河北省",
    "city_code": "130100",
    "city_name": "石家庄市",
    "lon": "114.140244",
    "lat": "38.041164",
    "type": 3
  },
  {
    "code": "130123",
    "name": "正定县",
    "province_code": "130000",
    "province_name": "河北省",
    "city_code": "130100",
    "city_name": "石家庄市",
    "lon": "114.553517",
    "lat": "38.149077",
    "type": 3
  },
  {
    "code": "130125",
    "name": "行唐县",
    "province_code": "130000",
    "province_name": "河北省",
    "city_code": "130100",
    "city_name": "石家庄市",
    "lon": "114.538014",
    "lat": "38.442511",
    "type": 3
  },
  {
    "code": "130126",
    "name": "灵寿县",
    "province_code": "130000",
    "province_name": "河北省",
    "city_code": "130100",
    "city_name": "石家庄市",
    "lon": "114.388052",
    "lat": "38.309234",
    "type": 3
  },
  {
    "code": "130127",
    "name": "高邑县",
    "province_code": "130000",
    "province_name": "河北省",
    "city_code": "130100",
    "city_name": "石家庄市",
    "lon": "114.597703",
    "lat": "37.606455",
    "type": 3
  },
  {
    "code": "130128",
    "name": "深泽县",
    "province_code": "130000",
    "province_name": "河北省",
    "city_code": "130100",
    "city_name": "石家庄市",
    "lon": "115.219363",
    "lat": "38.188457",
    "type": 3
  },
  {
    "code": "130129",
    "name": "赞皇县",
    "province_code": "130000",
    "province_name": "河北省",
    "city_code": "130100",
    "city_name": "石家庄市",
    "lon": "114.403263",
    "lat": "37.664988",
    "type": 3
  },
  {
    "code": "130130",
    "name": "无极县",
    "province_code": "130000",
    "province_name": "河北省",
    "city_code": "130100",
    "city_name": "石家庄市",
    "lon": "114.992730",
    "lat": "38.175834",
    "type": 3
  },
  {
    "code": "130131",
    "name": "平山县",
    "province_code": "130000",
    "province_name": "河北省",
    "city_code": "130100",
    "city_name": "石家庄市",
    "lon": "114.175694",
    "lat": "38.262847",
    "type": 3
  },
  {
    "code": "130132",
    "name": "元氏县",
    "province_code": "130000",
    "province_name": "河北省",
    "city_code": "130100",
    "city_name": "石家庄市",
    "lon": "114.546608",
    "lat": "37.761833",
    "type": 3
  },
  {
    "code": "130133",
    "name": "赵县",
    "province_code": "130000",
    "province_name": "河北省",
    "city_code": "130100",
    "city_name": "石家庄市",
    "lon": "114.764254",
    "lat": "37.753376",
    "type": 3
  },
  {
    "code": "130183",
    "name": "晋州市",
    "province_code": "130000",
    "province_name": "河北省",
    "city_code": "130100",
    "city_name": "石家庄市",
    "lon": "115.013200",
    "lat": "38.024772",
    "type": 3
  },
  {
    "code": "130184",
    "name": "新乐市",
    "province_code": "130000",
    "province_name": "河北省",
    "city_code": "130100",
    "city_name": "石家庄市",
    "lon": "114.675817",
    "lat": "38.342117",
    "type": 3
  },
  {
    "code": "130202",
    "name": "路南区",
    "province_code": "130000",
    "province_name": "河北省",
    "city_code": "130200",
    "city_name": "唐山市",
    "lon": "118.120536",
    "lat": "39.631074",
    "type": 3
  },
  {
    "code": "130203",
    "name": "路北区",
    "province_code": "130000",
    "province_name": "河北省",
    "city_code": "130200",
    "city_name": "唐山市",
    "lon": "118.217042",
    "lat": "39.626849",
    "type": 3
  },
  {
    "code": "130204",
    "name": "古冶区",
    "province_code": "130000",
    "province_name": "河北省",
    "city_code": "130200",
    "city_name": "唐山市",
    "lon": "118.460080",
    "lat": "39.717668",
    "type": 3
  },
  {
    "code": "130205",
    "name": "开平区",
    "province_code": "130000",
    "province_name": "河北省",
    "city_code": "130200",
    "city_name": "唐山市",
    "lon": "118.268621",
    "lat": "39.678466",
    "type": 3
  },
  {
    "code": "130207",
    "name": "丰南区",
    "province_code": "130000",
    "province_name": "河北省",
    "city_code": "130200",
    "city_name": "唐山市",
    "lon": "118.087400",
    "lat": "39.575634",
    "type": 3
  },
  {
    "code": "130208",
    "name": "丰润区",
    "province_code": "130000",
    "province_name": "河北省",
    "city_code": "130200",
    "city_name": "唐山市",
    "lon": "118.167280",
    "lat": "39.825924",
    "type": 3
  },
  {
    "code": "130209",
    "name": "曹妃甸区",
    "province_code": "130000",
    "province_name": "河北省",
    "city_code": "130200",
    "city_name": "唐山市",
    "lon": "118.420467",
    "lat": "39.286556",
    "type": 3
  },
  {
    "code": "130223",
    "name": "滦县",
    "province_code": "130000",
    "province_name": "河北省",
    "city_code": "130200",
    "city_name": "唐山市",
    "lon": "118.704442",
    "lat": "39.756264",
    "type": 3
  },
  {
    "code": "130224",
    "name": "滦南县",
    "province_code": "130000",
    "province_name": "河北省",
    "city_code": "130200",
    "city_name": "唐山市",
    "lon": "118.663575",
    "lat": "39.513093",
    "type": 3
  },
  {
    "code": "130225",
    "name": "乐亭县",
    "province_code": "130000",
    "province_name": "河北省",
    "city_code": "130200",
    "city_name": "唐山市",
    "lon": "118.919008",
    "lat": "39.405914",
    "type": 3
  },
  {
    "code": "130227",
    "name": "迁西县",
    "province_code": "130000",
    "province_name": "河北省",
    "city_code": "130200",
    "city_name": "唐山市",
    "lon": "118.303299",
    "lat": "40.115183",
    "type": 3
  },
  {
    "code": "130229",
    "name": "玉田县",
    "province_code": "130000",
    "province_name": "河北省",
    "city_code": "130200",
    "city_name": "唐山市",
    "lon": "117.746683",
    "lat": "39.882587",
    "type": 3
  },
  {
    "code": "130281",
    "name": "遵化市",
    "province_code": "130000",
    "province_name": "河北省",
    "city_code": "130200",
    "city_name": "唐山市",
    "lon": "117.965634",
    "lat": "40.203690",
    "type": 3
  },
  {
    "code": "130283",
    "name": "迁安市",
    "province_code": "130000",
    "province_name": "河北省",
    "city_code": "130200",
    "city_name": "唐山市",
    "lon": "118.731570",
    "lat": "39.995986",
    "type": 3
  },
  {
    "code": "130302",
    "name": "海港区",
    "province_code": "130000",
    "province_name": "河北省",
    "city_code": "130300",
    "city_name": "秦皇岛市",
    "lon": "119.600593",
    "lat": "39.938521",
    "type": 3
  },
  {
    "code": "130303",
    "name": "山海关区",
    "province_code": "130000",
    "province_name": "河北省",
    "city_code": "130300",
    "city_name": "秦皇岛市",
    "lon": "119.767344",
    "lat": "39.999925",
    "type": 3
  },
  {
    "code": "130304",
    "name": "北戴河区",
    "province_code": "130000",
    "province_name": "河北省",
    "city_code": "130300",
    "city_name": "秦皇岛市",
    "lon": "119.478191",
    "lat": "39.836243",
    "type": 3
  },
  {
    "code": "130306",
    "name": "抚宁区",
    "province_code": "130000",
    "province_name": "河北省",
    "city_code": "130300",
    "city_name": "秦皇岛市",
    "lon": "119.240298",
    "lat": "39.895682",
    "type": 3
  },
  {
    "code": "130321",
    "name": "青龙满族自治县",
    "province_code": "130000",
    "province_name": "河北省",
    "city_code": "130300",
    "city_name": "秦皇岛市",
    "lon": "118.946379",
    "lat": "40.408525",
    "type": 3
  },
  {
    "code": "130322",
    "name": "昌黎县",
    "province_code": "130000",
    "province_name": "河北省",
    "city_code": "130300",
    "city_name": "秦皇岛市",
    "lon": "119.168282",
    "lat": "39.705356",
    "type": 3
  },
  {
    "code": "130324",
    "name": "卢龙县",
    "province_code": "130000",
    "province_name": "河北省",
    "city_code": "130300",
    "city_name": "秦皇岛市",
    "lon": "118.891827",
    "lat": "39.895733",
    "type": 3
  },
  {
    "code": "130402",
    "name": "邯山区",
    "province_code": "130000",
    "province_name": "河北省",
    "city_code": "130400",
    "city_name": "邯郸市",
    "lon": "114.486158",
    "lat": "36.597586",
    "type": 3
  },
  {
    "code": "130403",
    "name": "丛台区",
    "province_code": "130000",
    "province_name": "河北省",
    "city_code": "130400",
    "city_name": "邯郸市",
    "lon": "114.493434",
    "lat": "36.618473",
    "type": 3
  },
  {
    "code": "130404",
    "name": "复兴区",
    "province_code": "130000",
    "province_name": "河北省",
    "city_code": "130400",
    "city_name": "邯郸市",
    "lon": "114.459630",
    "lat": "36.619916",
    "type": 3
  },
  {
    "code": "130406",
    "name": "峰峰矿区",
    "province_code": "130000",
    "province_name": "河北省",
    "city_code": "130400",
    "city_name": "邯郸市",
    "lon": "114.210105",
    "lat": "36.423677",
    "type": 3
  },
  {
    "code": "130421",
    "name": "邯郸县",
    "province_code": "130000",
    "province_name": "河北省",
    "city_code": "130400",
    "city_name": "邯郸市",
    "lon": "114.475447",
    "lat": "36.602654",
    "type": 3
  },
  {
    "code": "130423",
    "name": "临漳县",
    "province_code": "130000",
    "province_name": "河北省",
    "city_code": "130400",
    "city_name": "邯郸市",
    "lon": "114.601296",
    "lat": "36.343772",
    "type": 3
  },
  {
    "code": "130424",
    "name": "成安县",
    "province_code": "130000",
    "province_name": "河北省",
    "city_code": "130400",
    "city_name": "邯郸市",
    "lon": "114.679154",
    "lat": "36.459523",
    "type": 3
  },
  {
    "code": "130425",
    "name": "大名县",
    "province_code": "130000",
    "province_name": "河北省",
    "city_code": "130400",
    "city_name": "邯郸市",
    "lon": "115.129703",
    "lat": "36.288729",
    "type": 3
  },
  {
    "code": "130426",
    "name": "涉县",
    "province_code": "130000",
    "province_name": "河北省",
    "city_code": "130400",
    "city_name": "邯郸市",
    "lon": "113.666259",
    "lat": "36.576451",
    "type": 3
  },
  {
    "code": "130427",
    "name": "磁县",
    "province_code": "130000",
    "province_name": "河北省",
    "city_code": "130400",
    "city_name": "邯郸市",
    "lon": "114.374749",
    "lat": "36.360408",
    "type": 3
  },
  {
    "code": "130428",
    "name": "肥乡县",
    "province_code": "130000",
    "province_name": "河北省",
    "city_code": "130400",
    "city_name": "邯郸市",
    "lon": "114.808730",
    "lat": "36.560235",
    "type": 3
  },
  {
    "code": "130429",
    "name": "永年县",
    "province_code": "130000",
    "province_name": "河北省",
    "city_code": "130400",
    "city_name": "邯郸市",
    "lon": "114.495558",
    "lat": "36.780249",
    "type": 3
  },
  {
    "code": "130430",
    "name": "邱县",
    "province_code": "130000",
    "province_name": "河北省",
    "city_code": "130400",
    "city_name": "邯郸市",
    "lon": "115.179999",
    "lat": "36.818429",
    "type": 3
  },
  {
    "code": "130431",
    "name": "鸡泽县",
    "province_code": "130000",
    "province_name": "河北省",
    "city_code": "130400",
    "city_name": "邯郸市",
    "lon": "114.880637",
    "lat": "36.911857",
    "type": 3
  },
  {
    "code": "130432",
    "name": "广平县",
    "province_code": "130000",
    "province_name": "河北省",
    "city_code": "130400",
    "city_name": "邯郸市",
    "lon": "114.944787",
    "lat": "36.480758",
    "type": 3
  },
  {
    "code": "130433",
    "name": "馆陶县",
    "province_code": "130000",
    "province_name": "河北省",
    "city_code": "130400",
    "city_name": "邯郸市",
    "lon": "115.299481",
    "lat": "36.538536",
    "type": 3
  },
  {
    "code": "130434",
    "name": "魏县",
    "province_code": "130000",
    "province_name": "河北省",
    "city_code": "130400",
    "city_name": "邯郸市",
    "lon": "114.927678",
    "lat": "36.359169",
    "type": 3
  },
  {
    "code": "130435",
    "name": "曲周县",
    "province_code": "130000",
    "province_name": "河北省",
    "city_code": "130400",
    "city_name": "邯郸市",
    "lon": "114.958631",
    "lat": "36.769621",
    "type": 3
  },
  {
    "code": "130481",
    "name": "武安市",
    "province_code": "130000",
    "province_name": "河北省",
    "city_code": "130400",
    "city_name": "邯郸市",
    "lon": "114.188973",
    "lat": "36.693080",
    "type": 3
  },
  {
    "code": "130502",
    "name": "桥东区",
    "province_code": "130000",
    "province_name": "河北省",
    "city_code": "130500",
    "city_name": "邢台市",
    "lon": "114.593731",
    "lat": "37.091429",
    "type": 3
  },
  {
    "code": "130503",
    "name": "桥西区",
    "province_code": "130000",
    "province_name": "河北省",
    "city_code": "130500",
    "city_name": "邢台市",
    "lon": "114.459980",
    "lat": "37.060464",
    "type": 3
  },
  {
    "code": "130521",
    "name": "邢台县",
    "province_code": "130000",
    "province_name": "河北省",
    "city_code": "130500",
    "city_name": "邢台市",
    "lon": "114.516984",
    "lat": "37.100745",
    "type": 3
  },
  {
    "code": "130522",
    "name": "临城县",
    "province_code": "130000",
    "province_name": "河北省",
    "city_code": "130500",
    "city_name": "邢台市",
    "lon": "114.499062",
    "lat": "37.441466",
    "type": 3
  },
  {
    "code": "130523",
    "name": "内丘县",
    "province_code": "130000",
    "province_name": "河北省",
    "city_code": "130500",
    "city_name": "邢台市",
    "lon": "114.515260",
    "lat": "37.289776",
    "type": 3
  },
  {
    "code": "130524",
    "name": "柏乡县",
    "province_code": "130000",
    "province_name": "河北省",
    "city_code": "130500",
    "city_name": "邢台市",
    "lon": "114.694842",
    "lat": "37.486611",
    "type": 3
  },
  {
    "code": "130525",
    "name": "隆尧县",
    "province_code": "130000",
    "province_name": "河北省",
    "city_code": "130500",
    "city_name": "邢台市",
    "lon": "114.767565",
    "lat": "37.350155",
    "type": 3
  },
  {
    "code": "130526",
    "name": "任县",
    "province_code": "130000",
    "province_name": "河北省",
    "city_code": "130500",
    "city_name": "邢台市",
    "lon": "114.685870",
    "lat": "37.128571",
    "type": 3
  },
  {
    "code": "130527",
    "name": "南和县",
    "province_code": "130000",
    "province_name": "河北省",
    "city_code": "130500",
    "city_name": "邢台市",
    "lon": "114.694984",
    "lat": "37.004955",
    "type": 3
  },
  {
    "code": "130528",
    "name": "宁晋县",
    "province_code": "130000",
    "province_name": "河北省",
    "city_code": "130500",
    "city_name": "邢台市",
    "lon": "114.915739",
    "lat": "37.614684",
    "type": 3
  },
  {
    "code": "130529",
    "name": "巨鹿县",
    "province_code": "130000",
    "province_name": "河北省",
    "city_code": "130500",
    "city_name": "邢台市",
    "lon": "115.045846",
    "lat": "37.220257",
    "type": 3
  },
  {
    "code": "130530",
    "name": "新河县",
    "province_code": "130000",
    "province_name": "河北省",
    "city_code": "130500",
    "city_name": "邢台市",
    "lon": "115.242370",
    "lat": "37.522490",
    "type": 3
  },
  {
    "code": "130531",
    "name": "广宗县",
    "province_code": "130000",
    "province_name": "河北省",
    "city_code": "130500",
    "city_name": "邢台市",
    "lon": "115.142649",
    "lat": "37.071201",
    "type": 3
  },
  {
    "code": "130532",
    "name": "平乡县",
    "province_code": "130000",
    "province_name": "河北省",
    "city_code": "130500",
    "city_name": "邢台市",
    "lon": "115.032178",
    "lat": "37.063730",
    "type": 3
  },
  {
    "code": "130533",
    "name": "威县",
    "province_code": "130000",
    "province_name": "河北省",
    "city_code": "130500",
    "city_name": "邢台市",
    "lon": "115.276328",
    "lat": "36.987769",
    "type": 3
  },
  {
    "code": "130534",
    "name": "清河县",
    "province_code": "130000",
    "province_name": "河北省",
    "city_code": "130500",
    "city_name": "邢台市",
    "lon": "115.668281",
    "lat": "37.061945",
    "type": 3
  },
  {
    "code": "130535",
    "name": "临西县",
    "province_code": "130000",
    "province_name": "河北省",
    "city_code": "130500",
    "city_name": "邢台市",
    "lon": "115.496971",
    "lat": "36.869611",
    "type": 3
  },
  {
    "code": "130581",
    "name": "南宫市",
    "province_code": "130000",
    "province_name": "河北省",
    "city_code": "130500",
    "city_name": "邢台市",
    "lon": "115.392912",
    "lat": "37.355068",
    "type": 3
  },
  {
    "code": "130582",
    "name": "沙河市",
    "province_code": "130000",
    "province_name": "河北省",
    "city_code": "130500",
    "city_name": "邢台市",
    "lon": "114.511188",
    "lat": "36.864158",
    "type": 3
  },
  {
    "code": "130601",
    "name": "新市区",
    "province_code": "130000",
    "province_name": "河北省",
    "city_code": "130600",
    "city_name": "保定市",
    "lon": "115.458675",
    "lat": "38.877557",
    "type": 3
  },
  {
    "code": "130602",
    "name": "竞秀区",
    "province_code": "130000",
    "province_name": "河北省",
    "city_code": "130600",
    "city_name": "保定市",
    "lon": "115.462795",
    "lat": "38.875686",
    "type": 3
  },
  {
    "code": "130606",
    "name": "莲池区",
    "province_code": "130000",
    "province_name": "河北省",
    "city_code": "130600",
    "city_name": "保定市",
    "lon": "115.500218",
    "lat": "38.883436",
    "type": 3
  },
  {
    "code": "130607",
    "name": "满城区",
    "province_code": "130000",
    "province_name": "河北省",
    "city_code": "130600",
    "city_name": "保定市",
    "lon": "115.330467",
    "lat": "38.951054",
    "type": 3
  },
  {
    "code": "130608",
    "name": "清苑区",
    "province_code": "130000",
    "province_name": "河北省",
    "city_code": "130600",
    "city_name": "保定市",
    "lon": "115.484116",
    "lat": "38.770156",
    "type": 3
  },
  {
    "code": "130609",
    "name": "徐水区",
    "province_code": "130000",
    "province_name": "河北省",
    "city_code": "130600",
    "city_name": "保定市",
    "lon": "115.647136",
    "lat": "39.015639",
    "type": 3
  },
  {
    "code": "130623",
    "name": "涞水县",
    "province_code": "130000",
    "province_name": "河北省",
    "city_code": "130600",
    "city_name": "保定市",
    "lon": "115.712644",
    "lat": "39.392774",
    "type": 3
  },
  {
    "code": "130624",
    "name": "阜平县",
    "province_code": "130000",
    "province_name": "河北省",
    "city_code": "130600",
    "city_name": "保定市",
    "lon": "114.199095",
    "lat": "38.854884",
    "type": 3
  },
  {
    "code": "130626",
    "name": "定兴县",
    "province_code": "130000",
    "province_name": "河北省",
    "city_code": "130600",
    "city_name": "保定市",
    "lon": "115.787286",
    "lat": "39.266953",
    "type": 3
  },
  {
    "code": "130627",
    "name": "唐县",
    "province_code": "130000",
    "province_name": "河北省",
    "city_code": "130600",
    "city_name": "保定市",
    "lon": "114.967038",
    "lat": "38.749413",
    "type": 3
  },
  {
    "code": "130628",
    "name": "高阳县",
    "province_code": "130000",
    "province_name": "河北省",
    "city_code": "130600",
    "city_name": "保定市",
    "lon": "115.783672",
    "lat": "38.685508",
    "type": 3
  },
  {
    "code": "130629",
    "name": "容城县",
    "province_code": "130000",
    "province_name": "河北省",
    "city_code": "130600",
    "city_name": "保定市",
    "lon": "115.861614",
    "lat": "39.052426",
    "type": 3
  },
  {
    "code": "130630",
    "name": "涞源县",
    "province_code": "130000",
    "province_name": "河北省",
    "city_code": "130600",
    "city_name": "保定市",
    "lon": "114.702781",
    "lat": "39.357604",
    "type": 3
  },
  {
    "code": "130631",
    "name": "望都县",
    "province_code": "130000",
    "province_name": "河北省",
    "city_code": "130600",
    "city_name": "保定市",
    "lon": "115.159681",
    "lat": "38.711221",
    "type": 3
  },
  {
    "code": "130632",
    "name": "安新县",
    "province_code": "130000",
    "province_name": "河北省",
    "city_code": "130600",
    "city_name": "保定市",
    "lon": "115.921677",
    "lat": "38.924873",
    "type": 3
  },
  {
    "code": "130633",
    "name": "易县",
    "province_code": "130000",
    "province_name": "河北省",
    "city_code": "130600",
    "city_name": "保定市",
    "lon": "115.505942",
    "lat": "39.352908",
    "type": 3
  },
  {
    "code": "130634",
    "name": "曲阳县",
    "province_code": "130000",
    "province_name": "河北省",
    "city_code": "130600",
    "city_name": "保定市",
    "lon": "114.724087",
    "lat": "38.620387",
    "type": 3
  },
  {
    "code": "130635",
    "name": "蠡县",
    "province_code": "130000",
    "province_name": "河北省",
    "city_code": "130600",
    "city_name": "保定市",
    "lon": "115.594545",
    "lat": "38.495481",
    "type": 3
  },
  {
    "code": "130636",
    "name": "顺平县",
    "province_code": "130000",
    "province_name": "河北省",
    "city_code": "130600",
    "city_name": "保定市",
    "lon": "115.137123",
    "lat": "38.848061",
    "type": 3
  },
  {
    "code": "130637",
    "name": "博野县",
    "province_code": "130000",
    "province_name": "河北省",
    "city_code": "130600",
    "city_name": "保定市",
    "lon": "115.463844",
    "lat": "38.457868",
    "type": 3
  },
  {
    "code": "130638",
    "name": "雄县",
    "province_code": "130000",
    "province_name": "河北省",
    "city_code": "130600",
    "city_name": "保定市",
    "lon": "116.104973",
    "lat": "38.996970",
    "type": 3
  },
  {
    "code": "130681",
    "name": "涿州市",
    "province_code": "130000",
    "province_name": "河北省",
    "city_code": "130600",
    "city_name": "保定市",
    "lon": "115.984750",
    "lat": "39.487867",
    "type": 3
  },
  {
    "code": "130683",
    "name": "安国市",
    "province_code": "130000",
    "province_name": "河北省",
    "city_code": "130600",
    "city_name": "保定市",
    "lon": "115.330209",
    "lat": "38.427763",
    "type": 3
  },
  {
    "code": "130684",
    "name": "高碑店市",
    "province_code": "130000",
    "province_name": "河北省",
    "city_code": "130600",
    "city_name": "保定市",
    "lon": "115.871848",
    "lat": "39.323051",
    "type": 3
  },
  {
    "code": "130702",
    "name": "桥东区",
    "province_code": "130000",
    "province_name": "河北省",
    "city_code": "130700",
    "city_name": "张家口市",
    "lon": "114.908760",
    "lat": "40.779878",
    "type": 3
  },
  {
    "code": "130703",
    "name": "桥西区",
    "province_code": "130000",
    "province_name": "河北省",
    "city_code": "130700",
    "city_name": "张家口市",
    "lon": "114.877133",
    "lat": "40.811502",
    "type": 3
  },
  {
    "code": "130705",
    "name": "宣化区",
    "province_code": "130000",
    "province_name": "河北省",
    "city_code": "130700",
    "city_name": "张家口市",
    "lon": "115.065614",
    "lat": "40.608607",
    "type": 3
  },
  {
    "code": "130706",
    "name": "下花园区",
    "province_code": "130000",
    "province_name": "河北省",
    "city_code": "130700",
    "city_name": "张家口市",
    "lon": "115.283244",
    "lat": "40.490668",
    "type": 3
  },
  {
    "code": "130708",
    "name": "万全区",
    "province_code": "130000",
    "province_name": "河北省",
    "city_code": "130700",
    "city_name": "张家口市",
    "lon": "114.730517",
    "lat": "40.763452",
    "type": 3
  },
  {
    "code": "130709",
    "name": "崇礼区",
    "province_code": "130000",
    "province_name": "河北省",
    "city_code": "130700",
    "city_name": "张家口市",
    "lon": "115.280973",
    "lat": "40.969151",
    "type": 3
  },
  {
    "code": "130722",
    "name": "张北县",
    "province_code": "130000",
    "province_name": "河北省",
    "city_code": "130700",
    "city_name": "张家口市",
    "lon": "114.718326",
    "lat": "41.151609",
    "type": 3
  },
  {
    "code": "130723",
    "name": "康保县",
    "province_code": "130000",
    "province_name": "河北省",
    "city_code": "130700",
    "city_name": "张家口市",
    "lon": "114.597548",
    "lat": "41.850044",
    "type": 3
  },
  {
    "code": "130724",
    "name": "沽源县",
    "province_code": "130000",
    "province_name": "河北省",
    "city_code": "130700",
    "city_name": "张家口市",
    "lon": "115.710235",
    "lat": "41.665500",
    "type": 3
  },
  {
    "code": "130725",
    "name": "尚义县",
    "province_code": "130000",
    "province_name": "河北省",
    "city_code": "130700",
    "city_name": "张家口市",
    "lon": "113.978860",
    "lat": "41.081423",
    "type": 3
  },
  {
    "code": "130726",
    "name": "蔚县",
    "province_code": "130000",
    "province_name": "河北省",
    "city_code": "130700",
    "city_name": "张家口市",
    "lon": "114.586971",
    "lat": "39.844830",
    "type": 3
  },
  {
    "code": "130727",
    "name": "阳原县",
    "province_code": "130000",
    "province_name": "河北省",
    "city_code": "130700",
    "city_name": "张家口市",
    "lon": "114.150779",
    "lat": "40.105313",
    "type": 3
  },
  {
    "code": "130728",
    "name": "怀安县",
    "province_code": "130000",
    "province_name": "河北省",
    "city_code": "130700",
    "city_name": "张家口市",
    "lon": "114.415972",
    "lat": "40.673802",
    "type": 3
  },
  {
    "code": "130730",
    "name": "怀来县",
    "province_code": "130000",
    "province_name": "河北省",
    "city_code": "130700",
    "city_name": "张家口市",
    "lon": "115.524492",
    "lat": "40.409281",
    "type": 3
  },
  {
    "code": "130731",
    "name": "涿鹿县",
    "province_code": "130000",
    "province_name": "河北省",
    "city_code": "130700",
    "city_name": "张家口市",
    "lon": "115.210883",
    "lat": "40.380247",
    "type": 3
  },
  {
    "code": "130732",
    "name": "赤城县",
    "province_code": "130000",
    "province_name": "河北省",
    "city_code": "130700",
    "city_name": "张家口市",
    "lon": "115.835769",
    "lat": "40.910764",
    "type": 3
  },
  {
    "code": "130802",
    "name": "双桥区",
    "province_code": "130000",
    "province_name": "河北省",
    "city_code": "130800",
    "city_name": "承德市",
    "lon": "117.947296",
    "lat": "40.976853",
    "type": 3
  },
  {
    "code": "130803",
    "name": "双滦区",
    "province_code": "130000",
    "province_name": "河北省",
    "city_code": "130800",
    "city_name": "承德市",
    "lon": "117.785277",
    "lat": "40.949634",
    "type": 3
  },
  {
    "code": "130804",
    "name": "鹰手营子矿区",
    "province_code": "130000",
    "province_name": "河北省",
    "city_code": "130800",
    "city_name": "承德市",
    "lon": "117.659498",
    "lat": "40.546361",
    "type": 3
  },
  {
    "code": "130821",
    "name": "承德县",
    "province_code": "130000",
    "province_name": "河北省",
    "city_code": "130800",
    "city_name": "承德市",
    "lon": "118.173824",
    "lat": "40.768238",
    "type": 3
  },
  {
    "code": "130822",
    "name": "兴隆县",
    "province_code": "130000",
    "province_name": "河北省",
    "city_code": "130800",
    "city_name": "承德市",
    "lon": "117.513940",
    "lat": "40.436805",
    "type": 3
  },
  {
    "code": "130823",
    "name": "平泉县",
    "province_code": "130000",
    "province_name": "河北省",
    "city_code": "130800",
    "city_name": "承德市",
    "lon": "118.701951",
    "lat": "41.018405",
    "type": 3
  },
  {
    "code": "130824",
    "name": "滦平县",
    "province_code": "130000",
    "province_name": "河北省",
    "city_code": "130800",
    "city_name": "承德市",
    "lon": "117.332801",
    "lat": "40.941482",
    "type": 3
  },
  {
    "code": "130825",
    "name": "隆化县",
    "province_code": "130000",
    "province_name": "河北省",
    "city_code": "130800",
    "city_name": "承德市",
    "lon": "117.736234",
    "lat": "41.319302",
    "type": 3
  },
  {
    "code": "130826",
    "name": "丰宁满族自治县",
    "province_code": "130000",
    "province_name": "河北省",
    "city_code": "130800",
    "city_name": "承德市",
    "lon": "116.648700",
    "lat": "41.213176",
    "type": 3
  },
  {
    "code": "130827",
    "name": "宽城满族自治县",
    "province_code": "130000",
    "province_name": "河北省",
    "city_code": "130800",
    "city_name": "承德市",
    "lon": "118.478918",
    "lat": "40.607514",
    "type": 3
  },
  {
    "code": "130828",
    "name": "围场满族蒙古族自治县",
    "province_code": "130000",
    "province_name": "河北省",
    "city_code": "130800",
    "city_name": "承德市",
    "lon": "117.763409",
    "lat": "41.958804",
    "type": 3
  },
  {
    "code": "130902",
    "name": "新华区",
    "province_code": "130000",
    "province_name": "河北省",
    "city_code": "130900",
    "city_name": "沧州市",
    "lon": "116.877833",
    "lat": "38.292767",
    "type": 3
  },
  {
    "code": "130903",
    "name": "运河区",
    "province_code": "130000",
    "province_name": "河北省",
    "city_code": "130900",
    "city_name": "沧州市",
    "lon": "116.832347",
    "lat": "38.310561",
    "type": 3
  },
  {
    "code": "130921",
    "name": "沧县",
    "province_code": "130000",
    "province_name": "河北省",
    "city_code": "130900",
    "city_name": "沧州市",
    "lon": "116.604173",
    "lat": "38.327576",
    "type": 3
  },
  {
    "code": "130922",
    "name": "青县",
    "province_code": "130000",
    "province_name": "河北省",
    "city_code": "130900",
    "city_name": "沧州市",
    "lon": "116.839203",
    "lat": "38.577663",
    "type": 3
  },
  {
    "code": "130923",
    "name": "东光县",
    "province_code": "130000",
    "province_name": "河北省",
    "city_code": "130900",
    "city_name": "沧州市",
    "lon": "116.541959",
    "lat": "37.886148",
    "type": 3
  },
  {
    "code": "130924",
    "name": "海兴县",
    "province_code": "130000",
    "province_name": "河北省",
    "city_code": "130900",
    "city_name": "沧州市",
    "lon": "117.494303",
    "lat": "38.146071",
    "type": 3
  },
  {
    "code": "130925",
    "name": "盐山县",
    "province_code": "130000",
    "province_name": "河北省",
    "city_code": "130900",
    "city_name": "沧州市",
    "lon": "117.227254",
    "lat": "38.056803",
    "type": 3
  },
  {
    "code": "130926",
    "name": "肃宁县",
    "province_code": "130000",
    "province_name": "河北省",
    "city_code": "130900",
    "city_name": "沧州市",
    "lon": "115.840679",
    "lat": "38.424264",
    "type": 3
  },
  {
    "code": "130927",
    "name": "南皮县",
    "province_code": "130000",
    "province_name": "河北省",
    "city_code": "130900",
    "city_name": "沧州市",
    "lon": "116.703340",
    "lat": "38.046594",
    "type": 3
  },
  {
    "code": "130928",
    "name": "吴桥县",
    "province_code": "130000",
    "province_name": "河北省",
    "city_code": "130900",
    "city_name": "沧州市",
    "lon": "116.399146",
    "lat": "37.633982",
    "type": 3
  },
  {
    "code": "130929",
    "name": "献县",
    "province_code": "130000",
    "province_name": "河北省",
    "city_code": "130900",
    "city_name": "沧州市",
    "lon": "116.131363",
    "lat": "38.186720",
    "type": 3
  },
  {
    "code": "130930",
    "name": "孟村回族自治县",
    "province_code": "130000",
    "province_name": "河北省",
    "city_code": "130900",
    "city_name": "沧州市",
    "lon": "117.108353",
    "lat": "38.054203",
    "type": 3
  },
  {
    "code": "130981",
    "name": "泊头市",
    "province_code": "130000",
    "province_name": "河北省",
    "city_code": "130900",
    "city_name": "沧州市",
    "lon": "116.557167",
    "lat": "38.085666",
    "type": 3
  },
  {
    "code": "130982",
    "name": "任丘市",
    "province_code": "130000",
    "province_name": "河北省",
    "city_code": "130900",
    "city_name": "沧州市",
    "lon": "116.102544",
    "lat": "38.709685",
    "type": 3
  },
  {
    "code": "130983",
    "name": "黄骅市",
    "province_code": "130000",
    "province_name": "河北省",
    "city_code": "130900",
    "city_name": "沧州市",
    "lon": "117.333738",
    "lat": "38.370911",
    "type": 3
  },
  {
    "code": "130984",
    "name": "河间市",
    "province_code": "130000",
    "province_name": "河北省",
    "city_code": "130900",
    "city_name": "沧州市",
    "lon": "116.106084",
    "lat": "38.443834",
    "type": 3
  },
  {
    "code": "131002",
    "name": "安次区",
    "province_code": "130000",
    "province_name": "河北省",
    "city_code": "131000",
    "city_name": "廊坊市",
    "lon": "116.683494",
    "lat": "39.479044",
    "type": 3
  },
  {
    "code": "131003",
    "name": "广阳区",
    "province_code": "130000",
    "province_name": "河北省",
    "city_code": "131000",
    "city_name": "廊坊市",
    "lon": "116.717397",
    "lat": "39.523615",
    "type": 3
  },
  {
    "code": "131022",
    "name": "固安县",
    "province_code": "130000",
    "province_name": "河北省",
    "city_code": "131000",
    "city_name": "廊坊市",
    "lon": "116.300416",
    "lat": "39.445140",
    "type": 3
  },
  {
    "code": "131023",
    "name": "永清县",
    "province_code": "130000",
    "province_name": "河北省",
    "city_code": "131000",
    "city_name": "廊坊市",
    "lon": "116.495380",
    "lat": "39.318972",
    "type": 3
  },
  {
    "code": "131024",
    "name": "香河县",
    "province_code": "130000",
    "province_name": "河北省",
    "city_code": "131000",
    "city_name": "廊坊市",
    "lon": "117.011135",
    "lat": "39.762232",
    "type": 3
  },
  {
    "code": "131025",
    "name": "大城县",
    "province_code": "130000",
    "province_name": "河北省",
    "city_code": "131000",
    "city_name": "廊坊市",
    "lon": "116.638762",
    "lat": "38.701209",
    "type": 3
  },
  {
    "code": "131026",
    "name": "文安县",
    "province_code": "130000",
    "province_name": "河北省",
    "city_code": "131000",
    "city_name": "廊坊市",
    "lon": "116.464917",
    "lat": "38.873464",
    "type": 3
  },
  {
    "code": "131028",
    "name": "大厂回族自治县",
    "province_code": "130000",
    "province_name": "河北省",
    "city_code": "131000",
    "city_name": "廊坊市",
    "lon": "116.992706",
    "lat": "39.889412",
    "type": 3
  },
  {
    "code": "131081",
    "name": "霸州市",
    "province_code": "130000",
    "province_name": "河北省",
    "city_code": "131000",
    "city_name": "廊坊市",
    "lon": "116.395892",
    "lat": "39.118873",
    "type": 3
  },
  {
    "code": "131082",
    "name": "三河市",
    "province_code": "130000",
    "province_name": "河北省",
    "city_code": "131000",
    "city_name": "廊坊市",
    "lon": "117.073273",
    "lat": "39.984395",
    "type": 3
  },
  {
    "code": "131102",
    "name": "桃城区",
    "province_code": "130000",
    "province_name": "河北省",
    "city_code": "131100",
    "city_name": "衡水市",
    "lon": "115.687524",
    "lat": "37.742767",
    "type": 3
  },
  {
    "code": "131103",
    "name": "冀州区",
    "province_code": "130000",
    "province_name": "河北省",
    "city_code": "131100",
    "city_name": "衡水市",
    "lon": "115.577703",
    "lat": "37.544900",
    "type": 3
  },
  {
    "code": "131121",
    "name": "枣强县",
    "province_code": "130000",
    "province_name": "河北省",
    "city_code": "131100",
    "city_name": "衡水市",
    "lon": "115.729281",
    "lat": "37.509434",
    "type": 3
  },
  {
    "code": "131122",
    "name": "武邑县",
    "province_code": "130000",
    "province_name": "河北省",
    "city_code": "131100",
    "city_name": "衡水市",
    "lon": "115.890959",
    "lat": "37.804336",
    "type": 3
  },
  {
    "code": "131123",
    "name": "武强县",
    "province_code": "130000",
    "province_name": "河北省",
    "city_code": "131100",
    "city_name": "衡水市",
    "lon": "115.974307",
    "lat": "38.040354",
    "type": 3
  },
  {
    "code": "131124",
    "name": "饶阳县",
    "province_code": "130000",
    "province_name": "河北省",
    "city_code": "131100",
    "city_name": "衡水市",
    "lon": "115.727463",
    "lat": "38.235959",
    "type": 3
  },
  {
    "code": "131125",
    "name": "安平县",
    "province_code": "130000",
    "province_name": "河北省",
    "city_code": "131100",
    "city_name": "衡水市",
    "lon": "115.524451",
    "lat": "38.226756",
    "type": 3
  },
  {
    "code": "131126",
    "name": "故城县",
    "province_code": "130000",
    "province_name": "河北省",
    "city_code": "131100",
    "city_name": "衡水市",
    "lon": "115.960466",
    "lat": "37.360987",
    "type": 3
  },
  {
    "code": "131127",
    "name": "景县",
    "province_code": "130000",
    "province_name": "河北省",
    "city_code": "131100",
    "city_name": "衡水市",
    "lon": "116.274703",
    "lat": "37.692408",
    "type": 3
  },
  {
    "code": "131128",
    "name": "阜城县",
    "province_code": "130000",
    "province_name": "河北省",
    "city_code": "131100",
    "city_name": "衡水市",
    "lon": "116.161841",
    "lat": "37.866771",
    "type": 3
  },
  {
    "code": "131182",
    "name": "深州市",
    "province_code": "130000",
    "province_name": "河北省",
    "city_code": "131100",
    "city_name": "衡水市",
    "lon": "115.570431",
    "lat": "38.006574",
    "type": 3
  },
  {
    "code": "140105",
    "name": "小店区",
    "province_code": "140000",
    "province_name": "山西省",
    "city_code": "140100",
    "city_name": "太原市",
    "lon": "112.565262",
    "lat": "37.728711",
    "type": 3
  },
  {
    "code": "140106",
    "name": "迎泽区",
    "province_code": "140000",
    "province_name": "山西省",
    "city_code": "140100",
    "city_name": "太原市",
    "lon": "112.573141",
    "lat": "37.861994",
    "type": 3
  },
  {
    "code": "140107",
    "name": "杏花岭区",
    "province_code": "140000",
    "province_name": "山西省",
    "city_code": "140100",
    "city_name": "太原市",
    "lon": "112.571828",
    "lat": "37.907957",
    "type": 3
  },
  {
    "code": "140108",
    "name": "尖草坪区",
    "province_code": "140000",
    "province_name": "山西省",
    "city_code": "140100",
    "city_name": "太原市",
    "lon": "112.510094",
    "lat": "37.957657",
    "type": 3
  },
  {
    "code": "140109",
    "name": "万柏林区",
    "province_code": "140000",
    "province_name": "山西省",
    "city_code": "140100",
    "city_name": "太原市",
    "lon": "112.508396",
    "lat": "37.864915",
    "type": 3
  },
  {
    "code": "140110",
    "name": "晋源区",
    "province_code": "140000",
    "province_name": "山西省",
    "city_code": "140100",
    "city_name": "太原市",
    "lon": "112.472994",
    "lat": "37.715665",
    "type": 3
  },
  {
    "code": "140121",
    "name": "清徐县",
    "province_code": "140000",
    "province_name": "山西省",
    "city_code": "140100",
    "city_name": "太原市",
    "lon": "112.366263",
    "lat": "37.607748",
    "type": 3
  },
  {
    "code": "140122",
    "name": "阳曲县",
    "province_code": "140000",
    "province_name": "山西省",
    "city_code": "140100",
    "city_name": "太原市",
    "lon": "112.671859",
    "lat": "38.057111",
    "type": 3
  },
  {
    "code": "140123",
    "name": "娄烦县",
    "province_code": "140000",
    "province_name": "山西省",
    "city_code": "140100",
    "city_name": "太原市",
    "lon": "111.791630",
    "lat": "38.066874",
    "type": 3
  },
  {
    "code": "140181",
    "name": "古交市",
    "province_code": "140000",
    "province_name": "山西省",
    "city_code": "140100",
    "city_name": "太原市",
    "lon": "112.175068",
    "lat": "37.907386",
    "type": 3
  },
  {
    "code": "140202",
    "name": "城区",
    "province_code": "140000",
    "province_name": "山西省",
    "city_code": "140200",
    "city_name": "大同市",
    "lon": "113.310299",
    "lat": "40.079558",
    "type": 3
  },
  {
    "code": "140203",
    "name": "矿区",
    "province_code": "140000",
    "province_name": "山西省",
    "city_code": "140200",
    "city_name": "大同市",
    "lon": "113.171585",
    "lat": "40.032422",
    "type": 3
  },
  {
    "code": "140211",
    "name": "南郊区",
    "province_code": "140000",
    "province_name": "山西省",
    "city_code": "140200",
    "city_name": "大同市",
    "lon": "113.148469",
    "lat": "40.005783",
    "type": 3
  },
  {
    "code": "140212",
    "name": "新荣区",
    "province_code": "140000",
    "province_name": "山西省",
    "city_code": "140200",
    "city_name": "大同市",
    "lon": "113.141657",
    "lat": "40.257880",
    "type": 3
  },
  {
    "code": "140221",
    "name": "阳高县",
    "province_code": "140000",
    "province_name": "山西省",
    "city_code": "140200",
    "city_name": "大同市",
    "lon": "113.745449",
    "lat": "40.354631",
    "type": 3
  },
  {
    "code": "140222",
    "name": "天镇县",
    "province_code": "140000",
    "province_name": "山西省",
    "city_code": "140200",
    "city_name": "大同市",
    "lon": "114.062622",
    "lat": "40.434956",
    "type": 3
  },
  {
    "code": "140223",
    "name": "广灵县",
    "province_code": "140000",
    "province_name": "山西省",
    "city_code": "140200",
    "city_name": "大同市",
    "lon": "114.283867",
    "lat": "39.766433",
    "type": 3
  },
  {
    "code": "140224",
    "name": "灵丘县",
    "province_code": "140000",
    "province_name": "山西省",
    "city_code": "140200",
    "city_name": "大同市",
    "lon": "114.237225",
    "lat": "39.443035",
    "type": 3
  },
  {
    "code": "140225",
    "name": "浑源县",
    "province_code": "140000",
    "province_name": "山西省",
    "city_code": "140200",
    "city_name": "大同市",
    "lon": "113.695998",
    "lat": "39.707201",
    "type": 3
  },
  {
    "code": "140226",
    "name": "左云县",
    "province_code": "140000",
    "province_name": "山西省",
    "city_code": "140200",
    "city_name": "大同市",
    "lon": "112.713790",
    "lat": "40.014944",
    "type": 3
  },
  {
    "code": "140227",
    "name": "大同县",
    "province_code": "140000",
    "province_name": "山西省",
    "city_code": "140200",
    "city_name": "大同市",
    "lon": "113.608770",
    "lat": "40.041067",
    "type": 3
  },
  {
    "code": "140302",
    "name": "城区",
    "province_code": "140000",
    "province_name": "山西省",
    "city_code": "140300",
    "city_name": "阳泉市",
    "lon": "113.599892",
    "lat": "37.857304",
    "type": 3
  },
  {
    "code": "140303",
    "name": "矿区",
    "province_code": "140000",
    "province_name": "山西省",
    "city_code": "140300",
    "city_name": "阳泉市",
    "lon": "113.547200",
    "lat": "37.874597",
    "type": 3
  },
  {
    "code": "140311",
    "name": "郊区",
    "province_code": "140000",
    "province_name": "山西省",
    "city_code": "140300",
    "city_name": "阳泉市",
    "lon": "113.590698",
    "lat": "37.942493",
    "type": 3
  },
  {
    "code": "140321",
    "name": "平定县",
    "province_code": "140000",
    "province_name": "山西省",
    "city_code": "140300",
    "city_name": "阳泉市",
    "lon": "113.634870",
    "lat": "37.795432",
    "type": 3
  },
  {
    "code": "140322",
    "name": "盂县",
    "province_code": "140000",
    "province_name": "山西省",
    "city_code": "140300",
    "city_name": "阳泉市",
    "lon": "113.416578",
    "lat": "38.090889",
    "type": 3
  },
  {
    "code": "140402",
    "name": "城区",
    "province_code": "140000",
    "province_name": "山西省",
    "city_code": "140400",
    "city_name": "长治市",
    "lon": "113.123084",
    "lat": "36.203519",
    "type": 3
  },
  {
    "code": "140411",
    "name": "郊区",
    "province_code": "140000",
    "province_name": "山西省",
    "city_code": "140400",
    "city_name": "长治市",
    "lon": "113.057907",
    "lat": "36.214610",
    "type": 3
  },
  {
    "code": "140421",
    "name": "长治县",
    "province_code": "140000",
    "province_name": "山西省",
    "city_code": "140400",
    "city_name": "长治市",
    "lon": "113.056149",
    "lat": "36.052771",
    "type": 3
  },
  {
    "code": "140423",
    "name": "襄垣县",
    "province_code": "140000",
    "province_name": "山西省",
    "city_code": "140400",
    "city_name": "长治市",
    "lon": "113.055825",
    "lat": "36.532265",
    "type": 3
  },
  {
    "code": "140424",
    "name": "屯留县",
    "province_code": "140000",
    "province_name": "山西省",
    "city_code": "140400",
    "city_name": "长治市",
    "lon": "112.884294",
    "lat": "36.315991",
    "type": 3
  },
  {
    "code": "140425",
    "name": "平顺县",
    "province_code": "140000",
    "province_name": "山西省",
    "city_code": "140400",
    "city_name": "长治市",
    "lon": "113.446732",
    "lat": "36.194811",
    "type": 3
  },
  {
    "code": "140426",
    "name": "黎城县",
    "province_code": "140000",
    "province_name": "山西省",
    "city_code": "140400",
    "city_name": "长治市",
    "lon": "113.386768",
    "lat": "36.505329",
    "type": 3
  },
  {
    "code": "140427",
    "name": "壶关县",
    "province_code": "140000",
    "province_name": "山西省",
    "city_code": "140400",
    "city_name": "长治市",
    "lon": "113.198937",
    "lat": "36.095581",
    "type": 3
  },
  {
    "code": "140428",
    "name": "长子县",
    "province_code": "140000",
    "province_name": "山西省",
    "city_code": "140400",
    "city_name": "长治市",
    "lon": "112.895280",
    "lat": "36.118486",
    "type": 3
  },
  {
    "code": "140429",
    "name": "武乡县",
    "province_code": "140000",
    "province_name": "山西省",
    "city_code": "140400",
    "city_name": "长治市",
    "lon": "112.868317",
    "lat": "36.835498",
    "type": 3
  },
  {
    "code": "140430",
    "name": "沁县",
    "province_code": "140000",
    "province_name": "山西省",
    "city_code": "140400",
    "city_name": "长治市",
    "lon": "112.700894",
    "lat": "36.761357",
    "type": 3
  },
  {
    "code": "140431",
    "name": "沁源县",
    "province_code": "140000",
    "province_name": "山西省",
    "city_code": "140400",
    "city_name": "长治市",
    "lon": "112.342831",
    "lat": "36.503356",
    "type": 3
  },
  {
    "code": "140481",
    "name": "潞城市",
    "province_code": "140000",
    "province_name": "山西省",
    "city_code": "140400",
    "city_name": "长治市",
    "lon": "113.225654",
    "lat": "36.330352",
    "type": 3
  },
  {
    "code": "140502",
    "name": "城区",
    "province_code": "140000",
    "province_name": "山西省",
    "city_code": "140500",
    "city_name": "晋城市",
    "lon": "112.853555",
    "lat": "35.501572",
    "type": 3
  },
  {
    "code": "140521",
    "name": "沁水县",
    "province_code": "140000",
    "province_name": "山西省",
    "city_code": "140500",
    "city_name": "晋城市",
    "lon": "112.186095",
    "lat": "35.692197",
    "type": 3
  },
  {
    "code": "140522",
    "name": "阳城县",
    "province_code": "140000",
    "province_name": "山西省",
    "city_code": "140500",
    "city_name": "晋城市",
    "lon": "112.414437",
    "lat": "35.486623",
    "type": 3
  },
  {
    "code": "140524",
    "name": "陵川县",
    "province_code": "140000",
    "province_name": "山西省",
    "city_code": "140500",
    "city_name": "晋城市",
    "lon": "113.283348",
    "lat": "35.781046",
    "type": 3
  },
  {
    "code": "140525",
    "name": "泽州县",
    "province_code": "140000",
    "province_name": "山西省",
    "city_code": "140500",
    "city_name": "晋城市",
    "lon": "112.924892",
    "lat": "35.506118",
    "type": 3
  },
  {
    "code": "140581",
    "name": "高平市",
    "province_code": "140000",
    "province_name": "山西省",
    "city_code": "140500",
    "city_name": "晋城市",
    "lon": "112.933747",
    "lat": "35.794272",
    "type": 3
  },
  {
    "code": "140602",
    "name": "朔城区",
    "province_code": "140000",
    "province_name": "山西省",
    "city_code": "140600",
    "city_name": "朔州市",
    "lon": "112.428688",
    "lat": "39.321031",
    "type": 3
  },
  {
    "code": "140603",
    "name": "平鲁区",
    "province_code": "140000",
    "province_name": "山西省",
    "city_code": "140600",
    "city_name": "朔州市",
    "lon": "112.292407",
    "lat": "39.517352",
    "type": 3
  },
  {
    "code": "140621",
    "name": "山阴县",
    "province_code": "140000",
    "province_name": "山西省",
    "city_code": "140600",
    "city_name": "朔州市",
    "lon": "112.818166",
    "lat": "39.523959",
    "type": 3
  },
  {
    "code": "140622",
    "name": "应县",
    "province_code": "140000",
    "province_name": "山西省",
    "city_code": "140600",
    "city_name": "朔州市",
    "lon": "113.184189",
    "lat": "39.557059",
    "type": 3
  },
  {
    "code": "140623",
    "name": "右玉县",
    "province_code": "140000",
    "province_name": "山西省",
    "city_code": "140600",
    "city_name": "朔州市",
    "lon": "112.467804",
    "lat": "39.988373",
    "type": 3
  },
  {
    "code": "140624",
    "name": "怀仁县",
    "province_code": "140000",
    "province_name": "山西省",
    "city_code": "140600",
    "city_name": "朔州市",
    "lon": "113.101288",
    "lat": "39.827092",
    "type": 3
  },
  {
    "code": "140702",
    "name": "榆次区",
    "province_code": "140000",
    "province_name": "山西省",
    "city_code": "140700",
    "city_name": "晋中市",
    "lon": "112.726866",
    "lat": "37.678026",
    "type": 3
  },
  {
    "code": "140721",
    "name": "榆社县",
    "province_code": "140000",
    "province_name": "山西省",
    "city_code": "140700",
    "city_name": "晋中市",
    "lon": "112.973548",
    "lat": "37.073852",
    "type": 3
  },
  {
    "code": "140722",
    "name": "左权县",
    "province_code": "140000",
    "province_name": "山西省",
    "city_code": "140700",
    "city_name": "晋中市",
    "lon": "113.376818",
    "lat": "37.079890",
    "type": 3
  },
  {
    "code": "140723",
    "name": "和顺县",
    "province_code": "140000",
    "province_name": "山西省",
    "city_code": "140700",
    "city_name": "晋中市",
    "lon": "113.574171",
    "lat": "37.326421",
    "type": 3
  },
  {
    "code": "140724",
    "name": "昔阳县",
    "province_code": "140000",
    "province_name": "山西省",
    "city_code": "140700",
    "city_name": "晋中市",
    "lon": "113.703055",
    "lat": "37.606620",
    "type": 3
  },
  {
    "code": "140725",
    "name": "寿阳县",
    "province_code": "140000",
    "province_name": "山西省",
    "city_code": "140700",
    "city_name": "晋中市",
    "lon": "113.175983",
    "lat": "37.892124",
    "type": 3
  },
  {
    "code": "140726",
    "name": "太谷县",
    "province_code": "140000",
    "province_name": "山西省",
    "city_code": "140700",
    "city_name": "晋中市",
    "lon": "112.552687",
    "lat": "37.418138",
    "type": 3
  },
  {
    "code": "140727",
    "name": "祁县",
    "province_code": "140000",
    "province_name": "山西省",
    "city_code": "140700",
    "city_name": "晋中市",
    "lon": "112.331169",
    "lat": "37.346271",
    "type": 3
  },
  {
    "code": "140728",
    "name": "平遥县",
    "province_code": "140000",
    "province_name": "山西省",
    "city_code": "140700",
    "city_name": "晋中市",
    "lon": "112.173998",
    "lat": "37.190618",
    "type": 3
  },
  {
    "code": "140729",
    "name": "灵石县",
    "province_code": "140000",
    "province_name": "山西省",
    "city_code": "140700",
    "city_name": "晋中市",
    "lon": "111.776225",
    "lat": "36.847088",
    "type": 3
  },
  {
    "code": "140781",
    "name": "介休市",
    "province_code": "140000",
    "province_name": "山西省",
    "city_code": "140700",
    "city_name": "晋中市",
    "lon": "111.915038",
    "lat": "37.033899",
    "type": 3
  },
  {
    "code": "140802",
    "name": "盐湖区",
    "province_code": "140000",
    "province_name": "山西省",
    "city_code": "140800",
    "city_name": "运城市",
    "lon": "111.001919",
    "lat": "35.017244",
    "type": 3
  },
  {
    "code": "140821",
    "name": "临猗县",
    "province_code": "140000",
    "province_name": "山西省",
    "city_code": "140800",
    "city_name": "运城市",
    "lon": "110.770555",
    "lat": "35.139749",
    "type": 3
  },
  {
    "code": "140822",
    "name": "万荣县",
    "province_code": "140000",
    "province_name": "山西省",
    "city_code": "140800",
    "city_name": "运城市",
    "lon": "110.843474",
    "lat": "35.416757",
    "type": 3
  },
  {
    "code": "140823",
    "name": "闻喜县",
    "province_code": "140000",
    "province_name": "山西省",
    "city_code": "140800",
    "city_name": "运城市",
    "lon": "111.218561",
    "lat": "35.355471",
    "type": 3
  },
  {
    "code": "140824",
    "name": "稷山县",
    "province_code": "140000",
    "province_name": "山西省",
    "city_code": "140800",
    "city_name": "运城市",
    "lon": "110.975243",
    "lat": "35.603274",
    "type": 3
  },
  {
    "code": "140825",
    "name": "新绛县",
    "province_code": "140000",
    "province_name": "山西省",
    "city_code": "140800",
    "city_name": "运城市",
    "lon": "111.215797",
    "lat": "35.622419",
    "type": 3
  },
  {
    "code": "140826",
    "name": "绛县",
    "province_code": "140000",
    "province_name": "山西省",
    "city_code": "140800",
    "city_name": "运城市",
    "lon": "111.579694",
    "lat": "35.489058",
    "type": 3
  },
  {
    "code": "140827",
    "name": "垣曲县",
    "province_code": "140000",
    "province_name": "山西省",
    "city_code": "140800",
    "city_name": "运城市",
    "lon": "111.659821",
    "lat": "35.299259",
    "type": 3
  },
  {
    "code": "140828",
    "name": "夏县",
    "province_code": "140000",
    "province_name": "山西省",
    "city_code": "140800",
    "city_name": "运城市",
    "lon": "111.225841",
    "lat": "35.140468",
    "type": 3
  },
  {
    "code": "140829",
    "name": "平陆县",
    "province_code": "140000",
    "province_name": "山西省",
    "city_code": "140800",
    "city_name": "运城市",
    "lon": "111.212887",
    "lat": "34.837749",
    "type": 3
  },
  {
    "code": "140830",
    "name": "芮城县",
    "province_code": "140000",
    "province_name": "山西省",
    "city_code": "140800",
    "city_name": "运城市",
    "lon": "110.692781",
    "lat": "34.697990",
    "type": 3
  },
  {
    "code": "140881",
    "name": "永济市",
    "province_code": "140000",
    "province_name": "山西省",
    "city_code": "140800",
    "city_name": "运城市",
    "lon": "110.450317",
    "lat": "34.864532",
    "type": 3
  },
  {
    "code": "140882",
    "name": "河津市",
    "province_code": "140000",
    "province_name": "山西省",
    "city_code": "140800",
    "city_name": "运城市",
    "lon": "110.708055",
    "lat": "35.596396",
    "type": 3
  },
  {
    "code": "140902",
    "name": "忻府区",
    "province_code": "140000",
    "province_name": "山西省",
    "city_code": "140900",
    "city_name": "忻州市",
    "lon": "112.722736",
    "lat": "38.421691",
    "type": 3
  },
  {
    "code": "140921",
    "name": "定襄县",
    "province_code": "140000",
    "province_name": "山西省",
    "city_code": "140900",
    "city_name": "忻州市",
    "lon": "112.966034",
    "lat": "38.486935",
    "type": 3
  },
  {
    "code": "140922",
    "name": "五台县",
    "province_code": "140000",
    "province_name": "山西省",
    "city_code": "140900",
    "city_name": "忻州市",
    "lon": "113.256832",
    "lat": "38.728130",
    "type": 3
  },
  {
    "code": "140923",
    "name": "代县",
    "province_code": "140000",
    "province_name": "山西省",
    "city_code": "140900",
    "city_name": "忻州市",
    "lon": "112.957320",
    "lat": "39.071481",
    "type": 3
  },
  {
    "code": "140924",
    "name": "繁峙县",
    "province_code": "140000",
    "province_name": "山西省",
    "city_code": "140900",
    "city_name": "忻州市",
    "lon": "113.275777",
    "lat": "39.189675",
    "type": 3
  },
  {
    "code": "140925",
    "name": "宁武县",
    "province_code": "140000",
    "province_name": "山西省",
    "city_code": "140900",
    "city_name": "忻州市",
    "lon": "112.316416",
    "lat": "39.007276",
    "type": 3
  },
  {
    "code": "140926",
    "name": "静乐县",
    "province_code": "140000",
    "province_name": "山西省",
    "city_code": "140900",
    "city_name": "忻州市",
    "lon": "111.941521",
    "lat": "38.356394",
    "type": 3
  },
  {
    "code": "140927",
    "name": "神池县",
    "province_code": "140000",
    "province_name": "山西省",
    "city_code": "140900",
    "city_name": "忻州市",
    "lon": "112.204537",
    "lat": "39.089970",
    "type": 3
  },
  {
    "code": "140928",
    "name": "五寨县",
    "province_code": "140000",
    "province_name": "山西省",
    "city_code": "140900",
    "city_name": "忻州市",
    "lon": "111.842720",
    "lat": "38.913213",
    "type": 3
  },
  {
    "code": "140929",
    "name": "岢岚县",
    "province_code": "140000",
    "province_name": "山西省",
    "city_code": "140900",
    "city_name": "忻州市",
    "lon": "111.575424",
    "lat": "38.704414",
    "type": 3
  },
  {
    "code": "140930",
    "name": "河曲县",
    "province_code": "140000",
    "province_name": "山西省",
    "city_code": "140900",
    "city_name": "忻州市",
    "lon": "111.154415",
    "lat": "39.385029",
    "type": 3
  },
  {
    "code": "140931",
    "name": "保德县",
    "province_code": "140000",
    "province_name": "山西省",
    "city_code": "140900",
    "city_name": "忻州市",
    "lon": "111.101305",
    "lat": "39.031672",
    "type": 3
  },
  {
    "code": "140932",
    "name": "偏关县",
    "province_code": "140000",
    "province_name": "山西省",
    "city_code": "140900",
    "city_name": "忻州市",
    "lon": "111.502758",
    "lat": "39.439736",
    "type": 3
  },
  {
    "code": "140981",
    "name": "原平市",
    "province_code": "140000",
    "province_name": "山西省",
    "city_code": "140900",
    "city_name": "忻州市",
    "lon": "112.718483",
    "lat": "38.734314",
    "type": 3
  },
  {
    "code": "141002",
    "name": "尧都区",
    "province_code": "140000",
    "province_name": "山西省",
    "city_code": "141000",
    "city_name": "临汾市",
    "lon": "111.569855",
    "lat": "36.086124",
    "type": 3
  },
  {
    "code": "141021",
    "name": "曲沃县",
    "province_code": "140000",
    "province_name": "山西省",
    "city_code": "141000",
    "city_name": "临汾市",
    "lon": "111.479530",
    "lat": "35.645080",
    "type": 3
  },
  {
    "code": "141022",
    "name": "翼城县",
    "province_code": "140000",
    "province_name": "山西省",
    "city_code": "141000",
    "city_name": "临汾市",
    "lon": "111.716300",
    "lat": "35.737940",
    "type": 3
  },
  {
    "code": "141023",
    "name": "襄汾县",
    "province_code": "140000",
    "province_name": "山西省",
    "city_code": "141000",
    "city_name": "临汾市",
    "lon": "111.437133",
    "lat": "35.874519",
    "type": 3
  },
  {
    "code": "141024",
    "name": "洪洞县",
    "province_code": "140000",
    "province_name": "山西省",
    "city_code": "141000",
    "city_name": "临汾市",
    "lon": "111.678613",
    "lat": "36.259873",
    "type": 3
  },
  {
    "code": "141025",
    "name": "古县",
    "province_code": "140000",
    "province_name": "山西省",
    "city_code": "141000",
    "city_name": "临汾市",
    "lon": "111.914532",
    "lat": "36.257389",
    "type": 3
  },
  {
    "code": "141026",
    "name": "安泽县",
    "province_code": "140000",
    "province_name": "山西省",
    "city_code": "141000",
    "city_name": "临汾市",
    "lon": "112.249553",
    "lat": "36.145040",
    "type": 3
  },
  {
    "code": "141027",
    "name": "浮山县",
    "province_code": "140000",
    "province_name": "山西省",
    "city_code": "141000",
    "city_name": "临汾市",
    "lon": "111.850749",
    "lat": "35.970016",
    "type": 3
  },
  {
    "code": "141028",
    "name": "吉县",
    "province_code": "140000",
    "province_name": "山西省",
    "city_code": "141000",
    "city_name": "临汾市",
    "lon": "110.680164",
    "lat": "36.093463",
    "type": 3
  },
  {
    "code": "141029",
    "name": "乡宁县",
    "province_code": "140000",
    "province_name": "山西省",
    "city_code": "141000",
    "city_name": "临汾市",
    "lon": "110.877555",
    "lat": "35.982943",
    "type": 3
  },
  {
    "code": "141030",
    "name": "大宁县",
    "province_code": "140000",
    "province_name": "山西省",
    "city_code": "141000",
    "city_name": "临汾市",
    "lon": "110.766474",
    "lat": "36.468454",
    "type": 3
  },
  {
    "code": "141031",
    "name": "隰县",
    "province_code": "140000",
    "province_name": "山西省",
    "city_code": "141000",
    "city_name": "临汾市",
    "lon": "110.936239",
    "lat": "36.691214",
    "type": 3
  },
  {
    "code": "141032",
    "name": "永和县",
    "province_code": "140000",
    "province_name": "山西省",
    "city_code": "141000",
    "city_name": "临汾市",
    "lon": "110.632371",
    "lat": "36.758870",
    "type": 3
  },
  {
    "code": "141033",
    "name": "蒲县",
    "province_code": "140000",
    "province_name": "山西省",
    "city_code": "141000",
    "city_name": "临汾市",
    "lon": "111.101953",
    "lat": "36.408286",
    "type": 3
  },
  {
    "code": "141034",
    "name": "汾西县",
    "province_code": "140000",
    "province_name": "山西省",
    "city_code": "141000",
    "city_name": "临汾市",
    "lon": "111.572405",
    "lat": "36.655230",
    "type": 3
  },
  {
    "code": "141081",
    "name": "侯马市",
    "province_code": "140000",
    "province_name": "山西省",
    "city_code": "141000",
    "city_name": "临汾市",
    "lon": "111.383224",
    "lat": "35.622750",
    "type": 3
  },
  {
    "code": "141082",
    "name": "霍州市",
    "province_code": "140000",
    "province_name": "山西省",
    "city_code": "141000",
    "city_name": "临汾市",
    "lon": "111.730485",
    "lat": "36.572394",
    "type": 3
  },
  {
    "code": "141102",
    "name": "离石区",
    "province_code": "140000",
    "province_name": "山西省",
    "city_code": "141100",
    "city_name": "吕梁市",
    "lon": "111.139532",
    "lat": "37.519989",
    "type": 3
  },
  {
    "code": "141121",
    "name": "文水县",
    "province_code": "140000",
    "province_name": "山西省",
    "city_code": "141100",
    "city_name": "吕梁市",
    "lon": "112.033511",
    "lat": "37.435076",
    "type": 3
  },
  {
    "code": "141122",
    "name": "交城县",
    "province_code": "140000",
    "province_name": "山西省",
    "city_code": "141100",
    "city_name": "吕梁市",
    "lon": "112.157508",
    "lat": "37.546898",
    "type": 3
  },
  {
    "code": "141123",
    "name": "兴县",
    "province_code": "140000",
    "province_name": "山西省",
    "city_code": "141100",
    "city_name": "吕梁市",
    "lon": "111.128448",
    "lat": "38.463481",
    "type": 3
  },
  {
    "code": "141124",
    "name": "临县",
    "province_code": "140000",
    "province_name": "山西省",
    "city_code": "141100",
    "city_name": "吕梁市",
    "lon": "110.998531",
    "lat": "37.954209",
    "type": 3
  },
  {
    "code": "141125",
    "name": "柳林县",
    "province_code": "140000",
    "province_name": "山西省",
    "city_code": "141100",
    "city_name": "吕梁市",
    "lon": "110.898908",
    "lat": "37.434626",
    "type": 3
  },
  {
    "code": "141126",
    "name": "石楼县",
    "province_code": "140000",
    "province_name": "山西省",
    "city_code": "141100",
    "city_name": "吕梁市",
    "lon": "110.836028",
    "lat": "37.001801",
    "type": 3
  },
  {
    "code": "141127",
    "name": "岚县",
    "province_code": "140000",
    "province_name": "山西省",
    "city_code": "141100",
    "city_name": "吕梁市",
    "lon": "111.672606",
    "lat": "38.275489",
    "type": 3
  },
  {
    "code": "141128",
    "name": "方山县",
    "province_code": "140000",
    "province_name": "山西省",
    "city_code": "141100",
    "city_name": "吕梁市",
    "lon": "111.242843",
    "lat": "37.898325",
    "type": 3
  },
  {
    "code": "141129",
    "name": "中阳县",
    "province_code": "140000",
    "province_name": "山西省",
    "city_code": "141100",
    "city_name": "吕梁市",
    "lon": "111.187344",
    "lat": "37.353412",
    "type": 3
  },
  {
    "code": "141130",
    "name": "交口县",
    "province_code": "140000",
    "province_name": "山西省",
    "city_code": "141100",
    "city_name": "吕梁市",
    "lon": "111.180113",
    "lat": "36.985223",
    "type": 3
  },
  {
    "code": "141181",
    "name": "孝义市",
    "province_code": "140000",
    "province_name": "山西省",
    "city_code": "141100",
    "city_name": "吕梁市",
    "lon": "111.786675",
    "lat": "37.150612",
    "type": 3
  },
  {
    "code": "141182",
    "name": "汾阳市",
    "province_code": "140000",
    "province_name": "山西省",
    "city_code": "141100",
    "city_name": "吕梁市",
    "lon": "111.781450",
    "lat": "37.269244",
    "type": 3
  },
  {
    "code": "150102",
    "name": "新城区",
    "province_code": "150000",
    "province_name": "内蒙古自治区",
    "city_code": "150100",
    "city_name": "呼和浩特市",
    "lon": "111.678847",
    "lat": "40.850628",
    "type": 3
  },
  {
    "code": "150103",
    "name": "回民区",
    "province_code": "150000",
    "province_name": "内蒙古自治区",
    "city_code": "150100",
    "city_name": "呼和浩特市",
    "lon": "111.615859",
    "lat": "40.799561",
    "type": 3
  },
  {
    "code": "150104",
    "name": "玉泉区",
    "province_code": "150000",
    "province_name": "内蒙古自治区",
    "city_code": "150100",
    "city_name": "呼和浩特市",
    "lon": "111.674788",
    "lat": "40.750702",
    "type": 3
  },
  {
    "code": "150105",
    "name": "赛罕区",
    "province_code": "150000",
    "province_name": "内蒙古自治区",
    "city_code": "150100",
    "city_name": "呼和浩特市",
    "lon": "111.710161",
    "lat": "40.809980",
    "type": 3
  },
  {
    "code": "150121",
    "name": "土默特左旗",
    "province_code": "150000",
    "province_name": "内蒙古自治区",
    "city_code": "150100",
    "city_name": "呼和浩特市",
    "lon": "111.149289",
    "lat": "40.724450",
    "type": 3
  },
  {
    "code": "150122",
    "name": "托克托县",
    "province_code": "150000",
    "province_name": "内蒙古自治区",
    "city_code": "150100",
    "city_name": "呼和浩特市",
    "lon": "111.198989",
    "lat": "40.278245",
    "type": 3
  },
  {
    "code": "150123",
    "name": "和林格尔县",
    "province_code": "150000",
    "province_name": "内蒙古自治区",
    "city_code": "150100",
    "city_name": "呼和浩特市",
    "lon": "111.828767",
    "lat": "40.378970",
    "type": 3
  },
  {
    "code": "150124",
    "name": "清水河县",
    "province_code": "150000",
    "province_name": "内蒙古自治区",
    "city_code": "150100",
    "city_name": "呼和浩特市",
    "lon": "111.676070",
    "lat": "39.911607",
    "type": 3
  },
  {
    "code": "150125",
    "name": "武川县",
    "province_code": "150000",
    "province_name": "内蒙古自治区",
    "city_code": "150100",
    "city_name": "呼和浩特市",
    "lon": "111.461409",
    "lat": "41.090115",
    "type": 3
  },
  {
    "code": "150202",
    "name": "东河区",
    "province_code": "150000",
    "province_name": "内蒙古自治区",
    "city_code": "150200",
    "city_name": "包头市",
    "lon": "110.059911",
    "lat": "40.584216",
    "type": 3
  },
  {
    "code": "150203",
    "name": "昆都仑区",
    "province_code": "150000",
    "province_name": "内蒙古自治区",
    "city_code": "150200",
    "city_name": "包头市",
    "lon": "109.846825",
    "lat": "40.646485",
    "type": 3
  },
  {
    "code": "150204",
    "name": "青山区",
    "province_code": "150000",
    "province_name": "内蒙古自治区",
    "city_code": "150200",
    "city_name": "包头市",
    "lon": "109.909248",
    "lat": "40.647376",
    "type": 3
  },
  {
    "code": "150205",
    "name": "石拐区",
    "province_code": "150000",
    "province_name": "内蒙古自治区",
    "city_code": "150200",
    "city_name": "包头市",
    "lon": "110.272508",
    "lat": "40.672917",
    "type": 3
  },
  {
    "code": "150206",
    "name": "白云鄂博矿区",
    "province_code": "150000",
    "province_name": "内蒙古自治区",
    "city_code": "150200",
    "city_name": "包头市",
    "lon": "109.979789",
    "lat": "41.769367",
    "type": 3
  },
  {
    "code": "150207",
    "name": "九原区",
    "province_code": "150000",
    "province_name": "内蒙古自治区",
    "city_code": "150200",
    "city_name": "包头市",
    "lon": "109.979899",
    "lat": "40.625198",
    "type": 3
  },
  {
    "code": "150221",
    "name": "土默特右旗",
    "province_code": "150000",
    "province_name": "内蒙古自治区",
    "city_code": "150200",
    "city_name": "包头市",
    "lon": "110.540356",
    "lat": "40.578716",
    "type": 3
  },
  {
    "code": "150222",
    "name": "固阳县",
    "province_code": "150000",
    "province_name": "内蒙古自治区",
    "city_code": "150200",
    "city_name": "包头市",
    "lon": "110.061608",
    "lat": "41.017545",
    "type": 3
  },
  {
    "code": "150223",
    "name": "达尔罕茂明安联合旗",
    "province_code": "150000",
    "province_name": "内蒙古自治区",
    "city_code": "150200",
    "city_name": "包头市",
    "lon": "110.459984",
    "lat": "41.694361",
    "type": 3
  },
  {
    "code": "150302",
    "name": "海勃湾区",
    "province_code": "150000",
    "province_name": "内蒙古自治区",
    "city_code": "150300",
    "city_name": "乌海市",
    "lon": "106.833015",
    "lat": "39.673731",
    "type": 3
  },
  {
    "code": "150303",
    "name": "海南区",
    "province_code": "150000",
    "province_name": "内蒙古自治区",
    "city_code": "150300",
    "city_name": "乌海市",
    "lon": "106.885566",
    "lat": "39.439723",
    "type": 3
  },
  {
    "code": "150304",
    "name": "乌达区",
    "province_code": "150000",
    "province_name": "内蒙古自治区",
    "city_code": "150300",
    "city_name": "乌海市",
    "lon": "106.718513",
    "lat": "39.506446",
    "type": 3
  },
  {
    "code": "150402",
    "name": "红山区",
    "province_code": "150000",
    "province_name": "内蒙古自治区",
    "city_code": "150400",
    "city_name": "赤峰市",
    "lon": "118.964238",
    "lat": "42.263843",
    "type": 3
  },
  {
    "code": "150403",
    "name": "元宝山区",
    "province_code": "150000",
    "province_name": "内蒙古自治区",
    "city_code": "150400",
    "city_name": "赤峰市",
    "lon": "119.302086",
    "lat": "42.045339",
    "type": 3
  },
  {
    "code": "150404",
    "name": "松山区",
    "province_code": "150000",
    "province_name": "内蒙古自治区",
    "city_code": "150400",
    "city_name": "赤峰市",
    "lon": "118.929236",
    "lat": "42.280488",
    "type": 3
  },
  {
    "code": "150421",
    "name": "阿鲁科尔沁旗",
    "province_code": "150000",
    "province_name": "内蒙古自治区",
    "city_code": "150400",
    "city_name": "赤峰市",
    "lon": "120.092393",
    "lat": "43.878053",
    "type": 3
  },
  {
    "code": "150422",
    "name": "巴林左旗",
    "province_code": "150000",
    "province_name": "内蒙古自治区",
    "city_code": "150400",
    "city_name": "赤峰市",
    "lon": "119.352110",
    "lat": "43.956607",
    "type": 3
  },
  {
    "code": "150423",
    "name": "巴林右旗",
    "province_code": "150000",
    "province_name": "内蒙古自治区",
    "city_code": "150400",
    "city_name": "赤峰市",
    "lon": "118.671515",
    "lat": "43.526417",
    "type": 3
  },
  {
    "code": "150424",
    "name": "林西县",
    "province_code": "150000",
    "province_name": "内蒙古自治区",
    "city_code": "150400",
    "city_name": "赤峰市",
    "lon": "118.061393",
    "lat": "43.606545",
    "type": 3
  },
  {
    "code": "150425",
    "name": "克什克腾旗",
    "province_code": "150000",
    "province_name": "内蒙古自治区",
    "city_code": "150400",
    "city_name": "赤峰市",
    "lon": "117.545551",
    "lat": "43.265121",
    "type": 3
  },
  {
    "code": "150426",
    "name": "翁牛特旗",
    "province_code": "150000",
    "province_name": "内蒙古自治区",
    "city_code": "150400",
    "city_name": "赤峰市",
    "lon": "119.026962",
    "lat": "42.935499",
    "type": 3
  },
  {
    "code": "150428",
    "name": "喀喇沁旗",
    "province_code": "150000",
    "province_name": "内蒙古自治区",
    "city_code": "150400",
    "city_name": "赤峰市",
    "lon": "118.709909",
    "lat": "41.925951",
    "type": 3
  },
  {
    "code": "150429",
    "name": "宁城县",
    "province_code": "150000",
    "province_name": "内蒙古自治区",
    "city_code": "150400",
    "city_name": "赤峰市",
    "lon": "119.337793",
    "lat": "41.594739",
    "type": 3
  },
  {
    "code": "150430",
    "name": "敖汉旗",
    "province_code": "150000",
    "province_name": "内蒙古自治区",
    "city_code": "150400",
    "city_name": "赤峰市",
    "lon": "119.905339",
    "lat": "42.288591",
    "type": 3
  },
  {
    "code": "150502",
    "name": "科尔沁区",
    "province_code": "150000",
    "province_name": "内蒙古自治区",
    "city_code": "150500",
    "city_name": "通辽市",
    "lon": "122.269279",
    "lat": "43.632489",
    "type": 3
  },
  {
    "code": "150521",
    "name": "科尔沁左翼中旗",
    "province_code": "150000",
    "province_name": "内蒙古自治区",
    "city_code": "150500",
    "city_name": "通辽市",
    "lon": "123.312026",
    "lat": "44.125551",
    "type": 3
  },
  {
    "code": "150522",
    "name": "科尔沁左翼后旗",
    "province_code": "150000",
    "province_name": "内蒙古自治区",
    "city_code": "150500",
    "city_name": "通辽市",
    "lon": "122.355613",
    "lat": "42.953749",
    "type": 3
  },
  {
    "code": "150523",
    "name": "开鲁县",
    "province_code": "150000",
    "province_name": "内蒙古自治区",
    "city_code": "150500",
    "city_name": "通辽市",
    "lon": "121.308445",
    "lat": "43.604809",
    "type": 3
  },
  {
    "code": "150524",
    "name": "库伦旗",
    "province_code": "150000",
    "province_name": "内蒙古自治区",
    "city_code": "150500",
    "city_name": "通辽市",
    "lon": "121.766714",
    "lat": "42.730449",
    "type": 3
  },
  {
    "code": "150525",
    "name": "奈曼旗",
    "province_code": "150000",
    "province_name": "内蒙古自治区",
    "city_code": "150500",
    "city_name": "通辽市",
    "lon": "120.685189",
    "lat": "42.851090",
    "type": 3
  },
  {
    "code": "150526",
    "name": "扎鲁特旗",
    "province_code": "150000",
    "province_name": "内蒙古自治区",
    "city_code": "150500",
    "city_name": "通辽市",
    "lon": "120.912306",
    "lat": "44.554233",
    "type": 3
  },
  {
    "code": "150581",
    "name": "霍林郭勒市",
    "province_code": "150000",
    "province_name": "内蒙古自治区",
    "city_code": "150500",
    "city_name": "通辽市",
    "lon": "119.659547",
    "lat": "45.536061",
    "type": 3
  },
  {
    "code": "150602",
    "name": "东胜区",
    "province_code": "150000",
    "province_name": "内蒙古自治区",
    "city_code": "150600",
    "city_name": "鄂尔多斯市",
    "lon": "109.977844",
    "lat": "39.821254",
    "type": 3
  },
  {
    "code": "150603",
    "name": "康巴什区",
    "province_code": "150000",
    "province_name": "内蒙古自治区",
    "city_code": "150600",
    "city_name": "鄂尔多斯市",
    "lon": "109.845278",
    "lat": "39.612195",
    "type": 3
  },
  {
    "code": "150621",
    "name": "达拉特旗",
    "province_code": "150000",
    "province_name": "内蒙古自治区",
    "city_code": "150600",
    "city_name": "鄂尔多斯市",
    "lon": "110.017244",
    "lat": "40.404297",
    "type": 3
  },
  {
    "code": "150622",
    "name": "准格尔旗",
    "province_code": "150000",
    "province_name": "内蒙古自治区",
    "city_code": "150600",
    "city_name": "鄂尔多斯市",
    "lon": "111.232317",
    "lat": "39.866305",
    "type": 3
  },
  {
    "code": "150623",
    "name": "鄂托克前旗",
    "province_code": "150000",
    "province_name": "内蒙古自治区",
    "city_code": "150600",
    "city_name": "鄂尔多斯市",
    "lon": "107.481355",
    "lat": "38.184436",
    "type": 3
  },
  {
    "code": "150624",
    "name": "鄂托克旗",
    "province_code": "150000",
    "province_name": "内蒙古自治区",
    "city_code": "150600",
    "city_name": "鄂尔多斯市",
    "lon": "107.986941",
    "lat": "39.103313",
    "type": 3
  },
  {
    "code": "150625",
    "name": "杭锦旗",
    "province_code": "150000",
    "province_name": "内蒙古自治区",
    "city_code": "150600",
    "city_name": "鄂尔多斯市",
    "lon": "108.735027",
    "lat": "39.838927",
    "type": 3
  },
  {
    "code": "150626",
    "name": "乌审旗",
    "province_code": "150000",
    "province_name": "内蒙古自治区",
    "city_code": "150600",
    "city_name": "鄂尔多斯市",
    "lon": "108.829904",
    "lat": "38.598497",
    "type": 3
  },
  {
    "code": "150627",
    "name": "伊金霍洛旗",
    "province_code": "150000",
    "province_name": "内蒙古自治区",
    "city_code": "150600",
    "city_name": "鄂尔多斯市",
    "lon": "109.755065",
    "lat": "39.573876",
    "type": 3
  },

  "child": {
  "150701": "市辖区",
  "150702": "海拉尔区",
  "150703": "扎赉诺尔区",
  "150721": "阿荣旗",
  "150722": "莫力达瓦达斡尔族自治旗",
  "150723": "鄂伦春自治旗",
  "150724": "鄂温克族自治旗",
  "150725": "陈巴尔虎旗",
  "150726": "新巴尔虎左旗",
  "150727": "新巴尔虎右旗",
  "150781": "满洲里市",
  "150782": "牙克石市",
  "150783": "扎兰屯市",
  "150784": "额尔古纳市",
  "150785": "根河市"
},
  "child": {
  "150801": "市辖区",
  "150802": "临河区",
  "150821": "五原县",
  "150822": "磴口县",
  "150823": "乌拉特前旗",
  "150824": "乌拉特中旗",
  "150825": "乌拉特后旗",
  "150826": "杭锦后旗"
},
  "child": {
  "150901": "市辖区",
  "150902": "集宁区",
  "150921": "卓资县",
  "150922": "化德县",
  "150923": "商都县",
  "150924": "兴和县",
  "150925": "凉城县",
  "150926": "察哈尔右翼前旗",
  "150927": "察哈尔右翼中旗",
  "150928": "察哈尔右翼后旗",
  "150929": "四子王旗",
  "150981": "丰镇市"
},
  "child": {
  "152201": "乌兰浩特市",
  "152202": "阿尔山市",
  "152221": "科尔沁右翼前旗",
  "152222": "科尔沁右翼中旗",
  "152223": "扎赉特旗",
  "152224": "突泉县"
},
  "child": {
  "152501": "二连浩特市",
  "152502": "锡林浩特市",
  "152522": "阿巴嘎旗",
  "152523": "苏尼特左旗",
  "152524": "苏尼特右旗",
  "152525": "东乌珠穆沁旗",
  "152526": "西乌珠穆沁旗",
  "152527": "太仆寺旗",
  "152528": "镶黄旗",
  "152529": "正镶白旗",
  "152530": "正蓝旗",
  "152531": "多伦县"
},
  "child": {
  "152921": "阿拉善左旗",
  "152922": "阿拉善右旗",
  "152923": "额济纳旗"
},

  "child": {
  "210101": "市辖区",
  "210102": "和平区",
  "210103": "沈河区",
  "210104": "大东区",
  "210105": "皇姑区",
  "210106": "铁西区",
  "210111": "苏家屯区",
  "210112": "浑南区",
  "210113": "沈北新区",
  "210114": "于洪区",
  "210115": "辽中区",
  "210123": "康平县",
  "210124": "法库县",
  "210181": "新民市"
},
  "child": {
  "210201": "市辖区",
  "210202": "中山区",
  "210203": "西岗区",
  "210204": "沙河口区",
  "210211": "甘井子区",
  "210212": "旅顺口区",
  "210213": "金州区",
  "210214": "普兰店区",
  "210224": "长海县",
  "210281": "瓦房店市",
  "210283": "庄河市"
},
  "child": {
  "210301": "市辖区",
  "210302": "铁东区",
  "210303": "铁西区",
  "210304": "立山区",
  "210311": "千山区",
  "210321": "台安县",
  "210323": "岫岩满族自治县",
  "210381": "海城市"
},
  "child": {
  "210401": "市辖区",
  "210402": "新抚区",
  "210403": "东洲区",
  "210404": "望花区",
  "210411": "顺城区",
  "210421": "抚顺县",
  "210422": "新宾满族自治县",
  "210423": "清原满族自治县"
},
  "child": {
  "210501": "市辖区",
  "210502": "平山区",
  "210503": "溪湖区",
  "210504": "明山区",
  "210505": "南芬区",
  "210521": "本溪满族自治县",
  "210522": "桓仁满族自治县"
},
  "child": {
  "210601": "市辖区",
  "210602": "元宝区",
  "210603": "振兴区",
  "210604": "振安区",
  "210624": "宽甸满族自治县",
  "210681": "东港市",
  "210682": "凤城市"
},
  "child": {
  "210701": "市辖区",
  "210702": "古塔区",
  "210703": "凌河区",
  "210711": "太和区",
  "210726": "黑山县",
  "210727": "义县",
  "210781": "凌海市",
  "210782": "北镇市"
},
  "child": {
  "210801": "市辖区",
  "210802": "站前区",
  "210803": "西市区",
  "210804": "鲅鱼圈区",
  "210811": "老边区",
  "210881": "盖州市",
  "210882": "大石桥市"
},
  "child": {
  "210901": "市辖区",
  "210902": "海州区",
  "210903": "新邱区",
  "210904": "太平区",
  "210905": "清河门区",
  "210911": "细河区",
  "210921": "阜新蒙古族自治县",
  "210922": "彰武县"
},
  "child": {
  "211001": "市辖区",
  "211002": "白塔区",
  "211003": "文圣区",
  "211004": "宏伟区",
  "211005": "弓长岭区",
  "211011": "太子河区",
  "211021": "辽阳县",
  "211081": "灯塔市"
},
  "child": {
  "211101": "市辖区",
  "211102": "双台子区",
  "211103": "兴隆台区",
  "211104": "大洼区",
  "211122": "盘山县"
},
  "child": {
  "211201": "市辖区",
  "211202": "银州区",
  "211204": "清河区",
  "211221": "铁岭县",
  "211223": "西丰县",
  "211224": "昌图县",
  "211281": "调兵山市",
  "211282": "开原市"
},
  "child": {
  "211301": "市辖区",
  "211302": "双塔区",
  "211303": "龙城区",
  "211321": "朝阳县",
  "211322": "建平县",
  "211324": "喀喇沁左翼蒙古族自治县",
  "211381": "北票市",
  "211382": "凌源市"
},
  "child": {
  "211401": "市辖区",
  "211402": "连山区",
  "211403": "龙港区",
  "211404": "南票区",
  "211421": "绥中县",
  "211422": "建昌县",
  "211481": "兴城市"
},

  "child": {
  "220101": "市辖区",
  "220102": "南关区",
  "220103": "宽城区",
  "220104": "朝阳区",
  "220105": "二道区",
  "220106": "绿园区",
  "220112": "双阳区",
  "220113": "九台区",
  "220122": "农安县",
  "220182": "榆树市",
  "220183": "德惠市"
},
  "child": {
  "220201": "市辖区",
  "220202": "昌邑区",
  "220203": "龙潭区",
  "220204": "船营区",
  "220211": "丰满区",
  "220221": "永吉县",
  "220281": "蛟河市",
  "220282": "桦甸市",
  "220283": "舒兰市",
  "220284": "磐石市"
},
  "child": {
  "220301": "市辖区",
  "220302": "铁西区",
  "220303": "铁东区",
  "220322": "梨树县",
  "220323": "伊通满族自治县",
  "220381": "公主岭市",
  "220382": "双辽市"
},
  "child": {
  "220401": "市辖区",
  "220402": "龙山区",
  "220403": "西安区",
  "220421": "东丰县",
  "220422": "东辽县"
},
  "child": {
  "220501": "市辖区",
  "220502": "东昌区",
  "220503": "二道江区",
  "220521": "通化县",
  "220523": "辉南县",
  "220524": "柳河县",
  "220581": "梅河口市",
  "220582": "集安市"
},
  "child": {
  "220601": "市辖区",
  "220602": "浑江区",
  "220605": "江源区",
  "220621": "抚松县",
  "220622": "靖宇县",
  "220623": "长白朝鲜族自治县",
  "220681": "临江市"
},
  "child": {
  "220701": "市辖区",
  "220702": "宁江区",
  "220721": "前郭尔罗斯蒙古族自治县",
  "220722": "长岭县",
  "220723": "乾安县",
  "220781": "扶余市"
},
  "child": {
  "220801": "市辖区",
  "220802": "洮北区",
  "220821": "镇赉县",
  "220822": "通榆县",
  "220881": "洮南市",
  "220882": "大安市"
},
  "child": {
  "222401": "延吉市",
  "222402": "图们市",
  "222403": "敦化市",
  "222404": "珲春市",
  "222405": "龙井市",
  "222406": "和龙市",
  "222424": "汪清县",
  "222426": "安图县"
},

  "child": {
  "230101": "市辖区",
  "230102": "道里区",
  "230103": "南岗区",
  "230104": "道外区",
  "230108": "平房区",
  "230109": "松北区",
  "230110": "香坊区",
  "230111": "呼兰区",
  "230112": "阿城区",
  "230113": "双城区",
  "230123": "依兰县",
  "230124": "方正县",
  "230125": "宾县",
  "230126": "巴彦县",
  "230127": "木兰县",
  "230128": "通河县",
  "230129": "延寿县",
  "230183": "尚志市",
  "230184": "五常市"
},
  "child": {
  "230201": "市辖区",
  "230202": "龙沙区",
  "230203": "建华区",
  "230204": "铁锋区",
  "230205": "昂昂溪区",
  "230206": "富拉尔基区",
  "230207": "碾子山区",
  "230208": "梅里斯达斡尔族区",
  "230221": "龙江县",
  "230223": "依安县",
  "230224": "泰来县",
  "230225": "甘南县",
  "230227": "富裕县",
  "230229": "克山县",
  "230230": "克东县",
  "230231": "拜泉县",
  "230281": "讷河市"
},
  "child": {
  "230301": "市辖区",
  "230302": "鸡冠区",
  "230303": "恒山区",
  "230304": "滴道区",
  "230305": "梨树区",
  "230306": "城子河区",
  "230307": "麻山区",
  "230321": "鸡东县",
  "230381": "虎林市",
  "230382": "密山市"
},
  "child": {
  "230401": "市辖区",
  "230402": "向阳区",
  "230403": "工农区",
  "230404": "南山区",
  "230405": "兴安区",
  "230406": "东山区",
  "230407": "兴山区",
  "230421": "萝北县",
  "230422": "绥滨县"
},
  "child": {
  "230501": "市辖区",
  "230502": "尖山区",
  "230503": "岭东区",
  "230505": "四方台区",
  "230506": "宝山区",
  "230521": "集贤县",
  "230522": "友谊县",
  "230523": "宝清县",
  "230524": "饶河县"
},
  "child": {
  "230601": "市辖区",
  "230602": "萨尔图区",
  "230603": "龙凤区",
  "230604": "让胡路区",
  "230605": "红岗区",
  "230606": "大同区",
  "230621": "肇州县",
  "230622": "肇源县",
  "230623": "林甸县",
  "230624": "杜尔伯特蒙古族自治县"
},
  "child": {
  "230701": "市辖区",
  "230702": "伊春区",
  "230703": "南岔区",
  "230704": "友好区",
  "230705": "西林区",
  "230706": "翠峦区",
  "230707": "新青区",
  "230708": "美溪区",
  "230709": "金山屯区",
  "230710": "五营区",
  "230711": "乌马河区",
  "230712": "汤旺河区",
  "230713": "带岭区",
  "230714": "乌伊岭区",
  "230715": "红星区",
  "230716": "上甘岭区",
  "230722": "嘉荫县",
  "230781": "铁力市"
},
  "child": {
  "230801": "市辖区",
  "230803": "向阳区",
  "230804": "前进区",
  "230805": "东风区",
  "230811": "郊区",
  "230822": "桦南县",
  "230826": "桦川县",
  "230828": "汤原县",
  "230881": "同江市",
  "230882": "富锦市",
  "230883": "抚远市"
},
  "child": {
  "230901": "市辖区",
  "230902": "新兴区",
  "230903": "桃山区",
  "230904": "茄子河区",
  "230921": "勃利县"
},
  "child": {
  "231001": "市辖区",
  "231002": "东安区",
  "231003": "阳明区",
  "231004": "爱民区",
  "231005": "西安区",
  "231025": "林口县",
  "231081": "绥芬河市",
  "231083": "海林市",
  "231084": "宁安市",
  "231085": "穆棱市",
  "231086": "东宁市"
},
  "child": {
  "231101": "市辖区",
  "231102": "爱辉区",
  "231121": "嫩江县",
  "231123": "逊克县",
  "231124": "孙吴县",
  "231181": "北安市",
  "231182": "五大连池市"
},
  "child": {
  "231201": "市辖区",
  "231202": "北林区",
  "231221": "望奎县",
  "231222": "兰西县",
  "231223": "青冈县",
  "231224": "庆安县",
  "231225": "明水县",
  "231226": "绥棱县",
  "231281": "安达市",
  "231282": "肇东市",
  "231283": "海伦市"
},
  "child": {
  "232721": "呼玛县",
  "232722": "塔河县",
  "232723": "漠河县"
},

  "child": {
  "310101": "黄浦区",
  "310104": "徐汇区",
  "310105": "长宁区",
  "310106": "静安区",
  "310107": "普陀区",
  "310109": "虹口区",
  "310110": "杨浦区",
  "310112": "闵行区",
  "310113": "宝山区",
  "310114": "嘉定区",
  "310115": "浦东新区",
  "310116": "金山区",
  "310117": "松江区",
  "310118": "青浦区",
  "310120": "奉贤区",
  "310151": "崇明区"
},

  "child": {
  "320101": "市辖区",
  "320102": "玄武区",
  "320104": "秦淮区",
  "320105": "建邺区",
  "320106": "鼓楼区",
  "320111": "浦口区",
  "320113": "栖霞区",
  "320114": "雨花台区",
  "320115": "江宁区",
  "320116": "六合区",
  "320117": "溧水区",
  "320118": "高淳区"
},
  "child": {
  "320201": "市辖区",
  "320205": "锡山区",
  "320206": "惠山区",
  "320211": "滨湖区",
  "320213": "梁溪区",
  "320214": "新吴区",
  "320281": "江阴市",
  "320282": "宜兴市"
},
  "child": {
  "320301": "市辖区",
  "320302": "鼓楼区",
  "320303": "云龙区",
  "320305": "贾汪区",
  "320311": "泉山区",
  "320312": "铜山区",
  "320321": "丰县",
  "320322": "沛县",
  "320324": "睢宁县",
  "320381": "新沂市",
  "320382": "邳州市"
},
  "child": {
  "320401": "市辖区",
  "320402": "天宁区",
  "320404": "钟楼区",
  "320411": "新北区",
  "320412": "武进区",
  "320413": "金坛区",
  "320481": "溧阳市"
},
  "child": {
  "320501": "市辖区",
  "320505": "虎丘区",
  "320506": "吴中区",
  "320507": "相城区",
  "320508": "姑苏区",
  "320509": "吴江区",
  "320581": "常熟市",
  "320582": "张家港市",
  "320583": "昆山市",
  "320585": "太仓市"
},
  "child": {
  "320601": "市辖区",
  "320602": "崇川区",
  "320611": "港闸区",
  "320612": "通州区",
  "320621": "海安县",
  "320623": "如东县",
  "320681": "启东市",
  "320682": "如皋市",
  "320684": "海门市"
},
  "child": {
  "320701": "市辖区",
  "320703": "连云区",
  "320706": "海州区",
  "320707": "赣榆区",
  "320722": "东海县",
  "320723": "灌云县",
  "320724": "灌南县"
},
  "child": {
  "320801": "市辖区",
  "320803": "淮安区",
  "320804": "淮阴区",
  "320812": "清江浦区",
  "320813": "洪泽区",
  "320826": "涟水县",
  "320830": "盱眙县",
  "320831": "金湖县"
},
  "child": {
  "320901": "市辖区",
  "320902": "亭湖区",
  "320903": "盐都区",
  "320904": "大丰区",
  "320921": "响水县",
  "320922": "滨海县",
  "320923": "阜宁县",
  "320924": "射阳县",
  "320925": "建湖县",
  "320981": "东台市"
},
  "child": {
  "321001": "市辖区",
  "321002": "广陵区",
  "321003": "邗江区",
  "321012": "江都区",
  "321023": "宝应县",
  "321081": "仪征市",
  "321084": "高邮市"
},
  "child": {
  "321101": "市辖区",
  "321102": "京口区",
  "321111": "润州区",
  "321112": "丹徒区",
  "321181": "丹阳市",
  "321182": "扬中市",
  "321183": "句容市"
},
  "child": {
  "321201": "市辖区",
  "321202": "海陵区",
  "321203": "高港区",
  "321204": "姜堰区",
  "321281": "兴化市",
  "321282": "靖江市",
  "321283": "泰兴市"
},
  "child": {
  "321301": "市辖区",
  "321302": "宿城区",
  "321311": "宿豫区",
  "321322": "沭阳县",
  "321323": "泗阳县",
  "321324": "泗洪县"
},

  "child": {
  "330101": "市辖区",
  "330102": "上城区",
  "330103": "下城区",
  "330104": "江干区",
  "330105": "拱墅区",
  "330106": "西湖区",
  "330108": "滨江区",
  "330109": "萧山区",
  "330110": "余杭区",
  "330111": "富阳区",
  "330122": "桐庐县",
  "330127": "淳安县",
  "330182": "建德市",
  "330185": "临安市"
},
  "child": {
  "330201": "市辖区",
  "330203": "海曙区",
  "330204": "江东区",
  "330205": "江北区",
  "330206": "北仑区",
  "330211": "镇海区",
  "330212": "鄞州区",
  "330225": "象山县",
  "330226": "宁海县",
  "330281": "余姚市",
  "330282": "慈溪市",
  "330283": "奉化市"
},
  "child": {
  "330301": "市辖区",
  "330302": "鹿城区",
  "330303": "龙湾区",
  "330304": "瓯海区",
  "330305": "洞头区",
  "330324": "永嘉县",
  "330326": "平阳县",
  "330327": "苍南县",
  "330328": "文成县",
  "330329": "泰顺县",
  "330381": "瑞安市",
  "330382": "乐清市"
},
  "child": {
  "330401": "市辖区",
  "330402": "南湖区",
  "330411": "秀洲区",
  "330421": "嘉善县",
  "330424": "海盐县",
  "330481": "海宁市",
  "330482": "平湖市",
  "330483": "桐乡市"
},
  "child": {
  "330501": "市辖区",
  "330502": "吴兴区",
  "330503": "南浔区",
  "330521": "德清县",
  "330522": "长兴县",
  "330523": "安吉县"
},
  "child": {
  "330601": "市辖区",
  "330602": "越城区",
  "330603": "柯桥区",
  "330604": "上虞区",
  "330624": "新昌县",
  "330681": "诸暨市",
  "330683": "嵊州市"
},
  "child": {
  "330701": "市辖区",
  "330702": "婺城区",
  "330703": "金东区",
  "330723": "武义县",
  "330726": "浦江县",
  "330727": "磐安县",
  "330781": "兰溪市",
  "330782": "义乌市",
  "330783": "东阳市",
  "330784": "永康市"
},
  "child": {
  "330801": "市辖区",
  "330802": "柯城区",
  "330803": "衢江区",
  "330822": "常山县",
  "330824": "开化县",
  "330825": "龙游县",
  "330881": "江山市"
},
  "child": {
  "330901": "市辖区",
  "330902": "定海区",
  "330903": "普陀区",
  "330921": "岱山县",
  "330922": "嵊泗县"
},
  "child": {
  "331001": "市辖区",
  "331002": "椒江区",
  "331003": "黄岩区",
  "331004": "路桥区",
  "331021": "玉环县",
  "331022": "三门县",
  "331023": "天台县",
  "331024": "仙居县",
  "331081": "温岭市",
  "331082": "临海市"
},
  "child": {
  "331101": "市辖区",
  "331102": "莲都区",
  "331121": "青田县",
  "331122": "缙云县",
  "331123": "遂昌县",
  "331124": "松阳县",
  "331125": "云和县",
  "331126": "庆元县",
  "331127": "景宁畲族自治县",
  "331181": "龙泉市"
},

  "child": {
  "340101": "市辖区",
  "340102": "瑶海区",
  "340103": "庐阳区",
  "340104": "蜀山区",
  "340111": "包河区",
  "340121": "长丰县",
  "340122": "肥东县",
  "340123": "肥西县",
  "340124": "庐江县",
  "340181": "巢湖市"
},
  "child": {
  "340201": "市辖区",
  "340202": "镜湖区",
  "340203": "弋江区",
  "340207": "鸠江区",
  "340208": "三山区",
  "340221": "芜湖县",
  "340222": "繁昌县",
  "340223": "南陵县",
  "340225": "无为县"
},
  "child": {
  "340301": "市辖区",
  "340302": "龙子湖区",
  "340303": "蚌山区",
  "340304": "禹会区",
  "340311": "淮上区",
  "340321": "怀远县",
  "340322": "五河县",
  "340323": "固镇县"
},
  "child": {
  "340401": "市辖区",
  "340402": "大通区",
  "340403": "田家庵区",
  "340404": "谢家集区",
  "340405": "八公山区",
  "340406": "潘集区",
  "340421": "凤台县",
  "340422": "寿县"
},
  "child": {
  "340501": "市辖区",
  "340503": "花山区",
  "340504": "雨山区",
  "340506": "博望区",
  "340521": "当涂县",
  "340522": "含山县",
  "340523": "和县"
},
  "child": {
  "340601": "市辖区",
  "340602": "杜集区",
  "340603": "相山区",
  "340604": "烈山区",
  "340621": "濉溪县"
},
  "child": {
  "340701": "市辖区",
  "340705": "铜官区",
  "340706": "义安区",
  "340711": "郊区",
  "340722": "枞阳县"
},
  "child": {
  "340801": "市辖区",
  "340802": "迎江区",
  "340803": "大观区",
  "340811": "宜秀区",
  "340822": "怀宁县",
  "340824": "潜山县",
  "340825": "太湖县",
  "340826": "宿松县",
  "340827": "望江县",
  "340828": "岳西县",
  "340881": "桐城市"
},
  "child": {
  "341001": "市辖区",
  "341002": "屯溪区",
  "341003": "黄山区",
  "341004": "徽州区",
  "341021": "歙县",
  "341022": "休宁县",
  "341023": "黟县",
  "341024": "祁门县"
},
  "child": {
  "341101": "市辖区",
  "341102": "琅琊区",
  "341103": "南谯区",
  "341122": "来安县",
  "341124": "全椒县",
  "341125": "定远县",
  "341126": "凤阳县",
  "341181": "天长市",
  "341182": "明光市"
},
  "child": {
  "341201": "市辖区",
  "341202": "颍州区",
  "341203": "颍东区",
  "341204": "颍泉区",
  "341221": "临泉县",
  "341222": "太和县",
  "341225": "阜南县",
  "341226": "颍上县",
  "341282": "界首市"
},
  "child": {
  "341301": "市辖区",
  "341302": "埇桥区",
  "341321": "砀山县",
  "341322": "萧县",
  "341323": "灵璧县",
  "341324": "泗县"
},
  "child": {
  "341501": "市辖区",
  "341502": "金安区",
  "341503": "裕安区",
  "341504": "叶集区",
  "341522": "霍邱县",
  "341523": "舒城县",
  "341524": "金寨县",
  "341525": "霍山县"
},
  "child": {
  "341601": "市辖区",
  "341602": "谯城区",
  "341621": "涡阳县",
  "341622": "蒙城县",
  "341623": "利辛县"
},
  "child": {
  "341701": "市辖区",
  "341702": "贵池区",
  "341721": "东至县",
  "341722": "石台县",
  "341723": "青阳县"
},
  "child": {
  "341801": "市辖区",
  "341802": "宣州区",
  "341821": "郎溪县",
  "341822": "广德县",
  "341823": "泾县",
  "341824": "绩溪县",
  "341825": "旌德县",
  "341881": "宁国市"
},

  "child": {
  "350101": "市辖区",
  "350102": "鼓楼区",
  "350103": "台江区",
  "350104": "仓山区",
  "350105": "马尾区",
  "350111": "晋安区",
  "350121": "闽侯县",
  "350122": "连江县",
  "350123": "罗源县",
  "350124": "闽清县",
  "350125": "永泰县",
  "350128": "平潭县",
  "350181": "福清市",
  "350182": "长乐市"
},
  "child": {
  "350201": "市辖区",
  "350203": "思明区",
  "350205": "海沧区",
  "350206": "湖里区",
  "350211": "集美区",
  "350212": "同安区",
  "350213": "翔安区"
},
  "child": {
  "350301": "市辖区",
  "350302": "城厢区",
  "350303": "涵江区",
  "350304": "荔城区",
  "350305": "秀屿区",
  "350322": "仙游县"
},
  "child": {
  "350401": "市辖区",
  "350402": "梅列区",
  "350403": "三元区",
  "350421": "明溪县",
  "350423": "清流县",
  "350424": "宁化县",
  "350425": "大田县",
  "350426": "尤溪县",
  "350427": "沙县",
  "350428": "将乐县",
  "350429": "泰宁县",
  "350430": "建宁县",
  "350481": "永安市"
},
  "child": {
  "350501": "市辖区",
  "350502": "鲤城区",
  "350503": "丰泽区",
  "350504": "洛江区",
  "350505": "泉港区",
  "350521": "惠安县",
  "350524": "安溪县",
  "350525": "永春县",
  "350526": "德化县",
  "350527": "金门县",
  "350581": "石狮市",
  "350582": "晋江市",
  "350583": "南安市"
},
  "child": {
  "350601": "市辖区",
  "350602": "芗城区",
  "350603": "龙文区",
  "350622": "云霄县",
  "350623": "漳浦县",
  "350624": "诏安县",
  "350625": "长泰县",
  "350626": "东山县",
  "350627": "南靖县",
  "350628": "平和县",
  "350629": "华安县",
  "350681": "龙海市"
},
  "child": {
  "350701": "市辖区",
  "350702": "延平区",
  "350703": "建阳区",
  "350721": "顺昌县",
  "350722": "浦城县",
  "350723": "光泽县",
  "350724": "松溪县",
  "350725": "政和县",
  "350781": "邵武市",
  "350782": "武夷山市",
  "350783": "建瓯市"
},
  "child": {
  "350801": "市辖区",
  "350802": "新罗区",
  "350803": "永定区",
  "350821": "长汀县",
  "350823": "上杭县",
  "350824": "武平县",
  "350825": "连城县",
  "350881": "漳平市"
},
  "child": {
  "350901": "市辖区",
  "350902": "蕉城区",
  "350921": "霞浦县",
  "350922": "古田县",
  "350923": "屏南县",
  "350924": "寿宁县",
  "350925": "周宁县",
  "350926": "柘荣县",
  "350981": "福安市",
  "350982": "福鼎市"
},