[
  {
    "code": "110100",
    "name": "北京市",
    "name_en": "Beijing",
    "location": {
      "longitude": "116.395645038",
      "latitude": "39.9299857781"
    },
    "province": "北京"
  },
  {
    "code": "120100",
    "name": "天津市",
    "name_en": "Tianjin",
    "location": {
      "longitude": "117.210813092",
      "latitude": "39.1439299033"
    },
    "province": "天津"
  },
  {
    "code": "130100",
    "name": "石家庄市",
    "name_en": "Shijiazhuang Shi",
    "location": {
      "longitude": "114.522081844",
      "latitude": "38.0489583146"
    },
    "province": "河北省"
  },
  {
    "code": "130200",
    "name": "唐山市",
    "name_en": "Tangshan Shi",
    "location": {
      "longitude": "118.183450598",
      "latitude": "39.6505309225"
    },
    "province": "河北省"
  },
  {
    "code": "130300",
    "name": "秦皇岛市",
    "name_en": "Qinhuangdao Shi",
    "location": {
      "longitude": "119.604367616",
      "latitude": "39.9454615659"
    },
    "province": "河北省"
  },
  {
    "code": "130400",
    "name": "邯郸市",
    "name_en": "Handan Shi",
    "location": {
      "longitude": "114.482693932",
      "latitude": "36.6093079285"
    },
    "province": "河北省"
  },
  {
    "code": "130500",
    "name": "邢台市",
    "name_en": "Xingtai Shi",
    "location": {
      "longitude": "114.520486813",
      "latitude": "37.0695311969"
    },
    "province": "河北省"
  },
  {
    "code": "130600",
    "name": "保定市",
    "name_en": "Baoding Shi",
    "location": {
      "longitude": "115.494810169",
      "latitude": "38.886564548"
    },
    "province": "河北省"
  },
  {
    "code": "130700",
    "name": "张家口市",
    "name_en": "Zhangjiakou Shi ",
    "location": {
      "longitude": "114.89378153",
      "latitude": "40.8111884911"
    },
    "province": "河北省"
  },
  {
    "code": "130800",
    "name": "承德市",
    "name_en": "Chengde Shi",
    "location": {
      "longitude": "117.933822456",
      "latitude": "40.9925210525"
    },
    "province": "河北省"
  },
  {
    "code": "130900",
    "name": "沧州市",
    "name_en": "Cangzhou Shi",
    "location": {
      "longitude": "116.863806476",
      "latitude": "38.2976153503"
    },
    "province": "河北省"
  },
  {
    "code": "131000",
    "name": "廊坊市",
    "name_en": "Langfang Shi",
    "location": {
      "longitude": "116.703602223",
      "latitude": "39.5186106251"
    },
    "province": "河北省"
  },
  {
    "code": "131100",
    "name": "衡水市",
    "name_en": "Hengshui Shi ",
    "location": {
      "longitude": "115.686228653",
      "latitude": "37.7469290459"
    },
    "province": "河北省"
  },
  {
    "code": "140100",
    "name": "太原市",
    "name_en": "Taiyuan Shi",
    "location": {
      "longitude": "112.550863589",
      "latitude": "37.890277054"
    },
    "province": "山西省"
  },
  {
    "code": "140200",
    "name": "大同市",
    "name_en": "Datong Shi ",
    "location": {
      "longitude": "113.290508673",
      "latitude": "40.1137444997"
    },
    "province": "山西省"
  },
  {
    "code": "140300",
    "name": "阳泉市",
    "name_en": "Yangquan Shi",
    "location": {
      "longitude": "113.569237602",
      "latitude": "37.8695294932"
    },
    "province": "山西省"
  },
  {
    "code": "140400",
    "name": "长治市",
    "name_en": "Changzhi Shi",
    "location": {
      "longitude": "113.120292086",
      "latitude": "36.2016643857"
    },
    "province": "山西省"
  },
  {
    "code": "140500",
    "name": "晋城市",
    "name_en": "Jincheng Shi ",
    "location": {
      "longitude": "112.867332758",
      "latitude": "35.4998344672"
    },
    "province": "山西省"
  },
  {
    "code": "140600",
    "name": "朔州市",
    "name_en": "Shuozhou Shi ",
    "location": {
      "longitude": "112.479927727",
      "latitude": "39.3376719662"
    },
    "province": "山西省"
  },
  {
    "code": "140700",
    "name": "晋中市",
    "name_en": "Jinzhong Shi",
    "location": {
      "longitude": "112.7385144",
      "latitude": "37.6933615268"
    },
    "province": "山西省"
  },
  {
    "code": "140800",
    "name": "运城市",
    "name_en": "Yuncheng Shi",
    "location": {
      "longitude": "111.006853653",
      "latitude": "35.0388594798"
    },
    "province": "山西省"
  },
  {
    "code": "140900",
    "name": "忻州市",
    "name_en": "Xinzhou Shi",
    "location": {
      "longitude": "112.727938829",
      "latitude": "38.461030573"
    },
    "province": "山西省"
  },
  {
    "code": "141000",
    "name": "临汾市",
    "name_en": "Linfen Shi",
    "location": {
      "longitude": "111.538787596",
      "latitude": "36.0997454436"
    },
    "province": "山西省"
  },
  {
    "code": "141100",
    "name": "吕梁市",
    "name_en": "Lvliang Shi",
    "location": {
      "longitude": "111.143156602",
      "latitude": "37.527316097"
    },
    "province": "山西省"
  },
  {
    "code": "150100",
    "name": "呼和浩特市",
    "name_en": "Hohhot Shi",
    "location": {
      "longitude": "111.66035052",
      "latitude": "40.8283188731"
    },
    "province": "内蒙古自治区"
  },
  {
    "code": "150200",
    "name": "包头市",
    "name_en": "Baotou Shi ",
    "location": {
      "longitude": "109.846238532",
      "latitude": "40.6471194257"
    },
    "province": "内蒙古自治区"
  },
  {
    "code": "150300",
    "name": "乌海市",
    "name_en": "Wuhai Shi",
    "location": {
      "longitude": "106.831999097",
      "latitude": "39.6831770068"
    },
    "province": "内蒙古自治区"
  },
  {
    "code": "150400",
    "name": "赤峰市",
    "name_en": "Chifeng (Ulanhad)Shi",
    "location": {
      "longitude": "118.930761192",
      "latitude": "42.2971123203"
    },
    "province": "内蒙古自治区"
  },
  {
    "code": "150500",
    "name": "通辽市",
    "name_en": "Tongliao Shi",
    "location": {
      "longitude": "122.260363263",
      "latitude": "43.633756073"
    },
    "province": "内蒙古自治区"
  },
  {
    "code": "150600",
    "name": "鄂尔多斯市",
    "name_en": "Eerduosi Shi",
    "location": {
      "longitude": "109.993706251",
      "latitude": "39.8164895606"
    },
    "province": "内蒙古自治区"
  },
  {
    "code": "150700",
    "name": "呼伦贝尔市",
    "name_en": "Hulunbeier Shi ",
    "location": {
      "longitude": "119.760821794",
      "latitude": "49.2016360546"
    },
    "province": "内蒙古自治区"
  },
  {
    "code": "150800",
    "name": "巴彦淖尔市",
    "name_en": "Bayannaoer Shi",
    "location": {
      "longitude": "107.42380672",
      "latitude": "40.7691799024"
    },
    "province": "内蒙古自治区"
  },
  {
    "code": "150900",
    "name": "乌兰察布市",
    "name_en": "Wulanchabu Shi",
    "location": {
      "longitude": "113.112846391",
      "latitude": "41.0223629468"
    },
    "province": "内蒙古自治区"
  },
  {
    "code": "152200",
    "name": "兴安盟",
    "name_en": "Hinggan Meng",
    "location": {
      "longitude": "122.048166514",
      "latitude": "46.0837570652"
    },
    "province": "内蒙古自治区"
  },
  {
    "code": "152500",
    "name": "锡林郭勒盟",
    "name_en": "Xilin Gol Meng",
    "location": {
      "longitude": "116.027339689",
      "latitude": "43.9397048423"
    },
    "province": "内蒙古自治区"
  },
  {
    "code": "152900",
    "name": "阿拉善盟",
    "name_en": "Alxa Meng",
    "location": {
      "longitude": "105.695682871",
      "latitude": "38.8430752644"
    },
    "province": "内蒙古自治区"
  },
  {
    "code": "210100",
    "name": "沈阳市",
    "name_en": "Shenyang Shi",
    "location": {
      "longitude": "123.432790922",
      "latitude": "41.8086447835"
    },
    "province": "辽宁省"
  },
  {
    "code": "210200",
    "name": "大连市",
    "name_en": "Dalian Shi",
    "location": {
      "longitude": "121.593477781",
      "latitude": "38.9487099383"
    },
    "province": "辽宁省"
  },
  {
    "code": "210300",
    "name": "鞍山市",
    "name_en": "AnShan Shi",
    "location": {
      "longitude": "123.007763329",
      "latitude": "41.1187436822"
    },
    "province": "辽宁省"
  },
  {
    "code": "210400",
    "name": "抚顺市",
    "name_en": "Fushun Shi",
    "location": {
      "longitude": "123.929819767",
      "latitude": "41.8773038296"
    },
    "province": "辽宁省"
  },
  {
    "code": "210500",
    "name": "本溪市",
    "name_en": "Benxi Shi",
    "location": {
      "longitude": "123.77806237",
      "latitude": "41.3258376266"
    },
    "province": "辽宁省"
  },
  {
    "code": "210600",
    "name": "丹东市",
    "name_en": "Dandong Shi",
    "location": {
      "longitude": "124.338543115",
      "latitude": "40.1290228266"
    },
    "province": "辽宁省"
  },
  {
    "code": "210700",
    "name": "锦州市",
    "name_en": "Jinzhou Shi",
    "location": {
      "longitude": "121.147748738",
      "latitude": "41.1308788759"
    },
    "province": "辽宁省"
  },
  {
    "code": "210800",
    "name": "营口市",
    "name_en": "Yingkou Shi",
    "location": {
      "longitude": "122.233391371",
      "latitude": "40.6686510665"
    },
    "province": "辽宁省"
  },
  {
    "code": "210900",
    "name": "阜新市",
    "name_en": "Fuxin Shi",
    "location": {
      "longitude": "121.660822129",
      "latitude": "42.0192501071"
    },
    "province": "辽宁省"
  },
  {
    "code": "211000",
    "name": "辽阳市",
    "name_en": "Liaoyang Shi",
    "location": {
      "longitude": "123.172451205",
      "latitude": "41.2733392656"
    },
    "province": "辽宁省"
  },
  {
    "code": "211100",
    "name": "盘锦市",
    "name_en": "Panjin Shi",
    "location": {
      "longitude": "122.07322781",
      "latitude": "41.141248023"
    },
    "province": "辽宁省"
  },
  {
    "code": "211200",
    "name": "铁岭市",
    "name_en": "Tieling Shi",
    "location": {
      "longitude": "123.854849615",
      "latitude": "42.2997570121"
    },
    "province": "辽宁省"
  },
  {
    "code": "211300",
    "name": "朝阳市",
    "name_en": "Chaoyang Shi",
    "location": {
      "longitude": "120.446162703",
      "latitude": "41.5718276679"
    },
    "province": "辽宁省"
  },
  {
    "code": "211400",
    "name": "葫芦岛市",
    "name_en": "Huludao Shi",
    "location": {
      "longitude": "120.860757645",
      "latitude": "40.7430298813"
    },
    "province": "辽宁省"
  },
  {
    "code": "220100",
    "name": "长春市",
    "name_en": "Changchun Shi ",
    "location": {
      "longitude": "125.313642427",
      "latitude": "43.8983376071"
    },
    "province": "吉林省"
  },
  {
    "code": "220200",
    "name": "吉林市",
    "name_en": "Jilin Shi ",
    "location": {
      "longitude": "126.564543989",
      "latitude": "43.8719883344"
    },
    "province": "吉林省"
  },
  {
    "code": "220300",
    "name": "四平市",
    "name_en": "Siping Shi",
    "location": {
      "longitude": "124.391382074",
      "latitude": "43.1755247011"
    },
    "province": "吉林省"
  },
  {
    "code": "220400",
    "name": "辽源市",
    "name_en": "Liaoyuan Shi",
    "location": {
      "longitude": "125.133686052",
      "latitude": "42.9233026191"
    },
    "province": "吉林省"
  },
  {
    "code": "220500",
    "name": "通化市",
    "name_en": "Tonghua Shi",
    "location": {
      "longitude": "125.942650139",
      "latitude": "41.7363971299"
    },
    "province": "吉林省"
  },
  {
    "code": "220600",
    "name": "白山市",
    "name_en": "Baishan Shi",
    "location": {
      "longitude": "126.435797675",
      "latitude": "41.945859397"
    },
    "province": "吉林省"
  },
  {
    "code": "220700",
    "name": "松原市",
    "name_en": "Songyuan Shi",
    "location": {
      "longitude": "124.832994532",
      "latitude": "45.1360489701"
    },
    "province": "吉林省"
  },
  {
    "code": "220800",
    "name": "白城市",
    "name_en": "Baicheng Shi",
    "location": {
      "longitude": "122.840776679",
      "latitude": "45.6210862752"
    },
    "province": "吉林省"
  },
  {
    "code": "222400",
    "name": "延边朝鲜族自治州",
    "name_en": "Yanbian Chosenzu Zizhizhou",
    "location": {
      "longitude": "129.485901958",
      "latitude": "42.8964136037"
    },
    "province": "吉林省"
  },
  {
    "code": "230100",
    "name": "哈尔滨市",
    "name_en": "Harbin Shi",
    "location": {
      "longitude": "126.657716855",
      "latitude": "45.7732246332"
    },
    "province": "黑龙江省"
  },
  {
    "code": "230200",
    "name": "齐齐哈尔市",
    "name_en": "Qiqihar Shi",
    "location": {
      "longitude": "123.987288942",
      "latitude": "47.3476998134"
    },
    "province": "黑龙江省"
  },
  {
    "code": "230300",
    "name": "鸡西市",
    "name_en": "Jixi Shi",
    "location": {
      "longitude": "130.941767273",
      "latitude": "45.3215398866"
    },
    "province": "黑龙江省"
  },
  {
    "code": "230400",
    "name": "鹤岗市",
    "name_en": "Hegang Shi",
    "location": {
      "longitude": "130.292472051",
      "latitude": "47.3386659037"
    },
    "province": "黑龙江省"
  },
  {
    "code": "230500",
    "name": "双鸭山市",
    "name_en": "Shuangyashan Shi",
    "location": {
      "longitude": "131.17140174",
      "latitude": "46.6551020625"
    },
    "province": "黑龙江省"
  },
  {
    "code": "230600",
    "name": "大庆市",
    "name_en": "Daqing Shi",
    "location": {
      "longitude": "125.02183973",
      "latitude": "46.59670902"
    },
    "province": "黑龙江省"
  },
  {
    "code": "230700",
    "name": "伊春市",
    "name_en": "Yichun Shi",
    "location": {
      "longitude": "128.910765978",
      "latitude": "47.7346850751"
    },
    "province": "黑龙江省"
  },
  {
    "code": "230800",
    "name": "佳木斯市",
    "name_en": "Jiamusi Shi",
    "location": {
      "longitude": "130.284734586",
      "latitude": "46.8137796047"
    },
    "province": "黑龙江省"
  },
  {
    "code": "230900",
    "name": "七台河市",
    "name_en": "Qitaihe Shi",
    "location": {
      "longitude": "131.019048047",
      "latitude": "45.7750053686"
    },
    "province": "黑龙江省"
  },
  {
    "code": "231000",
    "name": "牡丹江市",
    "name_en": "Mudanjiang Shi",
    "location": {
      "longitude": "129.608035396",
      "latitude": "44.5885211528"
    },
    "province": "黑龙江省"
  },
  {
    "code": "231100",
    "name": "黑河市",
    "name_en": "Heihe Shi",
    "location": {
      "longitude": "127.500830295",
      "latitude": "50.2506900907"
    },
    "province": "黑龙江省"
  },
  {
    "code": "231200",
    "name": "绥化市",
    "name_en": "Suihua Shi",
    "location": {
      "longitude": "126.989094572",
      "latitude": "46.646063927"
    },
    "province": "黑龙江省"
  },
  {
    "code": "232700",
    "name": "大兴安岭地区",
    "name_en": "Da Hinggan Ling Diqu",
    "location": {
      "longitude": "124.19610419",
      "latitude": "51.991788968"
    },
    "province": "黑龙江省"
  },
  {
    "code": "310100",
    "name": "上海市",
    "name_en": "Shanghai",
    "location": {
      "longitude": "121.487899486",
      "latitude": "31.24916171"
    },
    "province": "上海"
  },
  {
    "code": "320100",
    "name": "南京市",
    "name_en": "Nanjing Shi",
    "location": {
      "longitude": "118.778074408",
      "latitude": "32.0572355018"
    },
    "province": "江苏省"
  },
  {
    "code": "320200",
    "name": "无锡市",
    "name_en": "Wuxi Shi",
    "location": {
      "longitude": "120.305455901",
      "latitude": "31.5700374519"
    },
    "province": "江苏省"
  },
  {
    "code": "320300",
    "name": "徐州市",
    "name_en": "Xuzhou Shi",
    "location": {
      "longitude": "117.188106623",
      "latitude": "34.2715534311"
    },
    "province": "江苏省"
  },
  {
    "code": "320400",
    "name": "常州市",
    "name_en": "Changzhou Shi",
    "location": {
      "longitude": "119.981861013",
      "latitude": "31.7713967447"
    },
    "province": "江苏省"
  },
  {
    "code": "320500",
    "name": "苏州市",
    "name_en": "Suzhou Shi",
    "location": {
      "longitude": "120.619907115",
      "latitude": "31.317987368"
    },
    "province": "江苏省"
  },
  {
    "code": "320600",
    "name": "南通市",
    "name_en": "Nantong Shi",
    "location": {
      "longitude": "120.873800951",
      "latitude": "32.0146645408"
    },
    "province": "江苏省"
  },
  {
    "code": "320700",
    "name": "连云港市",
    "name_en": "Lianyungang Shi",
    "location": {
      "longitude": "119.173872217",
      "latitude": "34.601548967"
    },
    "province": "江苏省"
  },
  {
    "code": "320800",
    "name": "淮安市",
    "name_en": "Huai,an Xian",
    "location": {
      "longitude": "119.030186365",
      "latitude": "33.6065127393"
    },
    "province": "江苏省"
  },
  {
    "code": "320900",
    "name": "盐城市",
    "name_en": "Yancheng Shi",
    "location": {
      "longitude": "120.148871818",
      "latitude": "33.3798618771"
    },
    "province": "江苏省"
  },
  {
    "code": "321000",
    "name": "扬州市",
    "name_en": "Yangzhou Shi",
    "location": {
      "longitude": "119.427777551",
      "latitude": "32.4085052546"
    },
    "province": "江苏省"
  },
  {
    "code": "321100",
    "name": "镇江市",
    "name_en": "Zhenjiang Shi",
    "location": {
      "longitude": "119.455835405",
      "latitude": "32.2044094436"
    },
    "province": "江苏省"
  },
  {
    "code": "321200",
    "name": "泰州市",
    "name_en": "Taizhou Shi",
    "location": {
      "longitude": "119.919606016",
      "latitude": "32.4760532748"
    },
    "province": "江苏省"
  },
  {
    "code": "321300",
    "name": "宿迁市",
    "name_en": "Suqian Shi",
    "location": {
      "longitude": "118.296893379",
      "latitude": "33.9520497337"
    },
    "province": "江苏省"
  },
  {
    "code": "330100",
    "name": "杭州市",
    "name_en": "Hangzhou Shi",
    "location": {
      "longitude": "120.219375416",
      "latitude": "30.2592444615"
    },
    "province": "浙江省"
  },
  {
    "code": "330200",
    "name": "宁波市",
    "name_en": "Ningbo Shi",
    "location": {
      "longitude": "121.579005973",
      "latitude": "29.8852589659"
    },
    "province": "浙江省"
  },
  {
    "code": "330300",
    "name": "温州市",
    "name_en": "Wenzhou Shi",
    "location": {
      "longitude": "120.690634734",
      "latitude": "28.002837594"
    },
    "province": "浙江省"
  },
  {
    "code": "330400",
    "name": "嘉兴市",
    "name_en": "Jiaxing Shi",
    "location": {
      "longitude": "120.760427699",
      "latitude": "30.7739922396"
    },
    "province": "浙江省"
  },
  {
    "code": "330500",
    "name": "湖州市",
    "name_en": "Huzhou Shi ",
    "location": {
      "longitude": "120.137243163",
      "latitude": "30.8779251557"
    },
    "province": "浙江省"
  },
  {
    "code": "330600",
    "name": "绍兴市",
    "name_en": "Shaoxing Shi",
    "location": {
      "longitude": "120.592467386",
      "latitude": "30.0023645805"
    },
    "province": "浙江省"
  },
  {
    "code": "330700",
    "name": "金华市",
    "name_en": "Jinhua Shi",
    "location": {
      "longitude": "119.652575704",
      "latitude": "29.1028991054"
    },
    "province": "浙江省"
  },
  {
    "code": "330800",
    "name": "衢州市",
    "name_en": "Quzhou Shi",
    "location": {
      "longitude": "118.875841652",
      "latitude": "28.9569104475"
    },
    "province": "浙江省"
  },
  {
    "code": "330900",
    "name": "舟山市",
    "name_en": "Zhoushan Shi",
    "location": {
      "longitude": "122.169872098",
      "latitude": "30.0360103026"
    },
    "province": "浙江省"
  },
  {
    "code": "331000",
    "name": "台州市",
    "name_en": "Taizhou Shi",
    "location": {
      "longitude": "121.440612936",
      "latitude": "28.6682832857"
    },
    "province": "浙江省"
  },
  {
    "code": "331100",
    "name": "丽水市",
    "name_en": "Lishui Shi",
    "location": {
      "longitude": "119.929575843",
      "latitude": "28.4562995521"
    },
    "province": "浙江省"
  },
  {
    "code": "340100",
    "name": "合肥市",
    "name_en": "Hefei Shi",
    "location": {
      "longitude": "117.282699092",
      "latitude": "31.8669422607"
    },
    "province": "安徽省"
  },
  {
    "code": "340200",
    "name": "芜湖市",
    "name_en": "Wuhu Shi",
    "location": {
      "longitude": "118.384108423",
      "latitude": "31.3660197875"
    },
    "province": "安徽省"
  },
  {
    "code": "340300",
    "name": "蚌埠市",
    "name_en": "Bengbu Shi",
    "location": {
      "longitude": "117.357079866",
      "latitude": "32.9294989067"
    },
    "province": "安徽省"
  },
  {
    "code": "340400",
    "name": "淮南市",
    "name_en": "Huainan Shi",
    "location": {
      "longitude": "117.018638863",
      "latitude": "32.6428118237"
    },
    "province": "安徽省"
  },
  {
    "code": "340500",
    "name": "马鞍山市",
    "name_en": "Ma,anshan Shi",
    "location": {
      "longitude": "118.515881847",
      "latitude": "31.6885281589"
    },
    "province": "安徽省"
  },
  {
    "code": "340600",
    "name": "淮北市",
    "name_en": "Huaibei Shi",
    "location": {
      "longitude": "116.791447429",
      "latitude": "33.9600233054"
    },
    "province": "安徽省"
  },
  {
    "code": "340700",
    "name": "铜陵市",
    "name_en": "Tongling Shi",
    "location": {
      "longitude": "117.819428729",
      "latitude": "30.9409296947"
    },
    "province": "安徽省"
  },
  {
    "code": "340800",
    "name": "安庆市",
    "name_en": "Anqing Shi",
    "location": {
      "longitude": "117.058738772",
      "latitude": "30.5378978174"
    },
    "province": "安徽省"
  },
  {
    "code": "341000",
    "name": "黄山市",
    "name_en": "Huangshan Shi",
    "location": {
      "longitude": "118.293569632",
      "latitude": "29.7344348562"
    },
    "province": "安徽省"
  },
  {
    "code": "341100",
    "name": "滁州市",
    "name_en": "Chuzhou Shi",
    "location": {
      "longitude": "118.324570351",
      "latitude": "32.3173505954"
    },
    "province": "安徽省"
  },
  {
    "code": "341200",
    "name": "阜阳市",
    "name_en": "Fuyang Shi",
    "location": {
      "longitude": "115.820932259",
      "latitude": "32.9012113306"
    },
    "province": "安徽省"
  },
  {
    "code": "341300",
    "name": "宿州市",
    "name_en": "Suzhou Shi",
    "location": {
      "longitude": "116.988692412",
      "latitude": "33.6367723858"
    },
    "province": "安徽省"
  },
  {
    "code": "341400",
    "name": "巢湖市",
    "name_en": "Chaohu Shi",
    "location": {
      "longitude": "117.880423",
      "latitude": "31.608464"
    },
    "province": "安徽省"
  },
  {
    "code": "341500",
    "name": "六安市",
    "name_en": "Liu,an Shi",
    "location": {
      "longitude": "116.505252683",
      "latitude": "31.7555583552"
    },
    "province": "安徽省"
  },
  {
    "code": "341600",
    "name": "亳州市",
    "name_en": "Bozhou Shi",
    "location": {
      "longitude": "115.787928245",
      "latitude": "33.8712105653"
    },
    "province": "安徽省"
  },
  {
    "code": "341700",
    "name": "池州市",
    "name_en": "Chizhou Shi",
    "location": {
      "longitude": "117.494476772",
      "latitude": "30.6600192482"
    },
    "province": "安徽省"
  },
  {
    "code": "341800",
    "name": "宣城市",
    "name_en": "Xuancheng Shi",
    "location": {
      "longitude": "118.752096311",
      "latitude": "30.9516423543"
    },
    "province": "安徽省"
  },
  {
    "code": "350100",
    "name": "福州市",
    "name_en": "Fuzhou Shi",
    "location": {
      "longitude": "119.330221107",
      "latitude": "26.0471254966"
    },
    "province": "福建省"
  },
  {
    "code": "350200",
    "name": "厦门市",
    "name_en": "Xiamen Shi",
    "location": {
      "longitude": "118.103886046",
      "latitude": "24.4892306125"
    },
    "province": "福建省"
  },
  {
    "code": "350300",
    "name": "莆田市",
    "name_en": "Putian Shi",
    "location": {
      "longitude": "119.077730964",
      "latitude": "25.4484501367"
    },
    "province": "福建省"
  },
  {
    "code": "350400",
    "name": "三明市",
    "name_en": "Sanming Shi",
    "location": {
      "longitude": "117.642193934",
      "latitude": "26.2708352794"
    },
    "province": "福建省"
  },
  {
    "code": "350500",
    "name": "泉州市",
    "name_en": "Quanzhou Shi",
    "location": {
      "longitude": "118.600362343",
      "latitude": "24.901652384"
    },
    "province": "福建省"
  },
  {
    "code": "350600",
    "name": "漳州市",
    "name_en": "Zhangzhou Shi",
    "location": {
      "longitude": "117.676204679",
      "latitude": "24.5170647798"
    },
    "province": "福建省"
  },
  {
    "code": "350700",
    "name": "南平市",
    "name_en": "Nanping Shi",
    "location": {
      "longitude": "118.181882949",
      "latitude": "26.6436264742"
    },
    "province": "福建省"
  },
  {
    "code": "350800",
    "name": "龙岩市",
    "name_en": "Longyan Shi",
    "location": {
      "longitude": "117.017996739",
      "latitude": "25.0786854335"
    },
    "province": "福建省"
  },
  {
    "code": "350900",
    "name": "宁德市",
    "name_en": "Ningde Shi",
    "location": {
      "longitude": "119.54208215",
      "latitude": "26.6565274192"
    },
    "province": "福建省"
  },
  {
    "code": "360100",
    "name": "南昌市",
    "name_en": "Nanchang Shi",
    "location": {
      "longitude": "115.893527546",
      "latitude": "28.6895780001"
    },
    "province": "江西省"
  },
  {
    "code": "360200",
    "name": "景德镇市",
    "name_en": "Jingdezhen Shi",
    "location": {
      "longitude": "117.186522625",
      "latitude": "29.3035627684"
    },
    "province": "江西省"
  },
  {
    "code": "360300",
    "name": "萍乡市",
    "name_en": "Pingxiang Shi",
    "location": {
      "longitude": "113.859917033",
      "latitude": "27.639544223"
    },
    "province": "江西省"
  },
  {
    "code": "360400",
    "name": "九江市",
    "name_en": "Jiujiang Shi",
    "location": {
      "longitude": "115.999848022",
      "latitude": "29.7196395261"
    },
    "province": "江西省"
  },
  {
    "code": "360500",
    "name": "新余市",
    "name_en": "Xinyu Shi",
    "location": {
      "longitude": "114.947117417",
      "latitude": "27.8223215586"
    },
    "province": "江西省"
  },
  {
    "code": "360600",
    "name": "鹰潭市",
    "name_en": "Yingtan Shi",
    "location": {
      "longitude": "117.035450186",
      "latitude": "28.2413095972"
    },
    "province": "江西省"
  },
  {
    "code": "360700",
    "name": "赣州市",
    "name_en": "Ganzhou Shi",
    "location": {
      "longitude": "114.935909079",
      "latitude": "25.8452955363"
    },
    "province": "江西省"
  },
  {
    "code": "360800",
    "name": "吉安市",
    "name_en": "Ji,an Shi",
    "location": {
      "longitude": "114.992038711",
      "latitude": "27.1138476502"
    },
    "province": "江西省"
  },
  {
    "code": "360900",
    "name": "宜春市",
    "name_en": "Yichun Shi",
    "location": {
      "longitude": "114.400038672",
      "latitude": "27.8111298958"
    },
    "province": "江西省"
  },
  {
    "code": "361000",
    "name": "抚州市",
    "name_en": "Wuzhou Shi",
    "location": {
      "longitude": "116.360918867",
      "latitude": "27.9545451703"
    },
    "province": "江西省"
  },
  {
    "code": "361100",
    "name": "上饶市",
    "name_en": "Shangrao Shi",
    "location": {
      "longitude": "117.955463877",
      "latitude": "28.4576225539"
    },
    "province": "江西省"
  },
  {
    "code": "370100",
    "name": "济南市",
    "name_en": "Jinan Shi",
    "location": {
      "longitude": "117.024967066",
      "latitude": "36.6827847272"
    },
    "province": "山东省"
  },
  {
    "code": "370200",
    "name": "青岛市",
    "name_en": "Qingdao Shi",
    "location": {
      "longitude": "120.384428184",
      "latitude": "36.1052149013"
    },
    "province": "山东省"
  },
  {
    "code": "370300",
    "name": "淄博市",
    "name_en": "Zibo Shi",
    "location": {
      "longitude": "118.059134278",
      "latitude": "36.8046848542"
    },
    "province": "山东省"
  },
  {
    "code": "370400",
    "name": "枣庄市",
    "name_en": "Zaozhuang Shi",
    "location": {
      "longitude": "117.279305383",
      "latitude": "34.8078830784"
    },
    "province": "山东省"
  },
  {
    "code": "370500",
    "name": "东营市",
    "name_en": "Dongying Shi",
    "location": {
      "longitude": "118.583926333",
      "latitude": "37.4871211553"
    },
    "province": "山东省"
  },
  {
    "code": "370600",
    "name": "烟台市",
    "name_en": "Yantai Shi",
    "location": {
      "longitude": "121.30955503",
      "latitude": "37.5365615629"
    },
    "province": "山东省"
  },
  {
    "code": "370700",
    "name": "潍坊市",
    "name_en": "Weifang Shi",
    "location": {
      "longitude": "119.142633823",
      "latitude": "36.7161148731"
    },
    "province": "山东省"
  },
  {
    "code": "370800",
    "name": "济宁市",
    "name_en": "Jining Shi",
    "location": {
      "longitude": "116.600797625",
      "latitude": "35.4021216643"
    },
    "province": "山东省"
  },
  {
    "code": "370900",
    "name": "泰安市",
    "name_en": "Tai,an Shi",
    "location": {
      "longitude": "117.089414917",
      "latitude": "36.1880777589"
    },
    "province": "山东省"
  },
  {
    "code": "371000",
    "name": "威海市",
    "name_en": "Weihai Shi",
    "location": {
      "longitude": "122.093958366",
      "latitude": "37.5287870813"
    },
    "province": "山东省"
  },
  {
    "code": "371100",
    "name": "日照市",
    "name_en": "Rizhao Shi",
    "location": {
      "longitude": "119.507179943",
      "latitude": "35.4202251931"
    },
    "province": "山东省"
  },
  {
    "code": "371200",
    "name": "莱芜市",
    "name_en": "Laiwu Shi",
    "location": {
      "longitude": "117.684666912",
      "latitude": "36.2336541336"
    },
    "province": "山东省"
  },
  {
    "code": "371300",
    "name": "临沂市",
    "name_en": "Linyi Shi",
    "location": {
      "longitude": "118.340768237",
      "latitude": "35.0724090744"
    },
    "province": "山东省"
  },
  {
    "code": "371400",
    "name": "德州市",
    "name_en": "Dezhou Shi",
    "location": {
      "longitude": "116.328161364",
      "latitude": "37.4608259263"
    },
    "province": "山东省"
  },
  {
    "code": "371500",
    "name": "聊城市",
    "name_en": "Liaocheng Shi",
    "location": {
      "longitude": "115.986869139",
      "latitude": "36.4558285147"
    },
    "province": "山东省"
  },
  {
    "code": "371600",
    "name": "滨州市",
    "name_en": "Binzhou Shi",
    "location": {
      "longitude": "117.968292415",
      "latitude": "37.4053139418"
    },
    "province": "山东省"
  },
  {
    "code": "371700",
    "name": "菏泽市",
    "name_en": "Heze Shi",
    "location": {
      "longitude": "115.463359775",
      "latitude": "35.2624404961"
    },
    "province": "山东省"
  },
  {
    "code": "410100",
    "name": "郑州市",
    "name_en": "Zhengzhou Shi",
    "location": {
      "longitude": "113.64964385",
      "latitude": "34.7566100641"
    },
    "province": "河南省"
  },
  {
    "code": "410200",
    "name": "开封市",
    "name_en": "Kaifeng Shi",
    "location": {
      "longitude": "114.351642118",
      "latitude": "34.8018541758"
    },
    "province": "河南省"
  },
  {
    "code": "410300",
    "name": "洛阳市",
    "name_en": "Luoyang Shi",
    "location": {
      "longitude": "112.447524769",
      "latitude": "34.6573678177"
    },
    "province": "河南省"
  },
  {
    "code": "410400",
    "name": "平顶山市",
    "name_en": "Pingdingshan Shi",
    "location": {
      "longitude": "113.300848978",
      "latitude": "33.7453014565"
    },
    "province": "河南省"
  },
  {
    "code": "410500",
    "name": "安阳市",
    "name_en": "Anyang Shi",
    "location": {
      "longitude": "114.351806508",
      "latitude": "36.1102667222"
    },
    "province": "河南省"
  },
  {
    "code": "410600",
    "name": "鹤壁市",
    "name_en": "Hebi Shi",
    "location": {
      "longitude": "114.297769838",
      "latitude": "35.7554258742"
    },
    "province": "河南省"
  },
  {
    "code": "410700",
    "name": "新乡市",
    "name_en": "Xinxiang Shi",
    "location": {
      "longitude": "113.912690161",
      "latitude": "35.3072575577"
    },
    "province": "河南省"
  },
  {
    "code": "410800",
    "name": "焦作市",
    "name_en": "Jiaozuo Shi",
    "location": {
      "longitude": "113.211835885",
      "latitude": "35.234607555"
    },
    "province": "河南省"
  },
  {
    "code": "410900",
    "name": "濮阳市",
    "name_en": "Puyang Shi",
    "location": {
      "longitude": "115.026627441",
      "latitude": "35.7532978882"
    },
    "province": "河南省"
  },
  {
    "code": "411000",
    "name": "许昌市",
    "name_en": "Xuchang Shi",
    "location": {
      "longitude": "113.83531246",
      "latitude": "34.0267395887"
    },
    "province": "河南省"
  },
  {
    "code": "411100",
    "name": "漯河市",
    "name_en": "Luohe Shi",
    "location": {
      "longitude": "114.0460614",
      "latitude": "33.5762786885"
    },
    "province": "河南省"
  },
  {
    "code": "411200",
    "name": "三门峡市",
    "name_en": "Sanmenxia Shi",
    "location": {
      "longitude": "111.181262093",
      "latitude": "34.7833199411"
    },
    "province": "河南省"
  },
  {
    "code": "411300",
    "name": "南阳市",
    "name_en": "Nanyang Shi",
    "location": {
      "longitude": "112.542841901",
      "latitude": "33.0114195691"
    },
    "province": "河南省"
  },
  {
    "code": "411400",
    "name": "商丘市",
    "name_en": "Shangqiu Shi",
    "location": {
      "longitude": "115.641885688",
      "latitude": "34.4385886402"
    },
    "province": "河南省"
  },
  {
    "code": "411500",
    "name": "信阳市",
    "name_en": "Xinyang Shi",
    "location": {
      "longitude": "114.085490993",
      "latitude": "32.1285823075"
    },
    "province": "河南省"
  },
  {
    "code": "411600",
    "name": "周口市",
    "name_en": "Zhoukou Shi",
    "location": {
      "longitude": "114.654101942",
      "latitude": "33.6237408181"
    },
    "province": "河南省"
  },
  {
    "code": "411700",
    "name": "驻马店市",
    "name_en": "Zhumadian Shi",
    "location": {
      "longitude": "114.049153547",
      "latitude": "32.9831581541"
    },
    "province": "河南省"
  },
  {
    "code": "420100",
    "name": "武汉市",
    "name_en": "Wuhan Shi",
    "location": {
      "longitude": "114.316200103",
      "latitude": "30.5810841269"
    },
    "province": "湖北省"
  },
  {
    "code": "420200",
    "name": "黄石市",
    "name_en": "Huangshi Shi",
    "location": {
      "longitude": "115.050683164",
      "latitude": "30.2161271277"
    },
    "province": "湖北省"
  },
  {
    "code": "420300",
    "name": "十堰市",
    "name_en": "Shiyan Shi",
    "location": {
      "longitude": "110.801228917",
      "latitude": "32.6369943395"
    },
    "province": "湖北省"
  },
  {
    "code": "420500",
    "name": "宜昌市",
    "name_en": "Yichang Shi",
    "location": {
      "longitude": "111.310981092",
      "latitude": "30.732757818"
    },
    "province": "湖北省"
  },
  {
    "code": "420600",
    "name": "襄阳市",
    "name_en": "Xiangfan Shi",
    "location": {
      "longitude": "112.250092848",
      "latitude": "32.2291685915"
    },
    "province": "湖北省"
  },
  {
    "code": "420700",
    "name": "鄂州市",
    "name_en": "Ezhou Shi",
    "location": {
      "longitude": "114.895594041",
      "latitude": "30.3844393228"
    },
    "province": "湖北省"
  },
  {
    "code": "420800",
    "name": "荆门市",
    "name_en": "Jingmen Shi",
    "location": {
      "longitude": "112.217330299",
      "latitude": "31.0426112029"
    },
    "province": "湖北省"
  },
  {
    "code": "420900",
    "name": "孝感市",
    "name_en": "Xiaogan Shi",
    "location": {
      "longitude": "113.935734392",
      "latitude": "30.9279547842"
    },
    "province": "湖北省"
  },
  {
    "code": "421000",
    "name": "荆州市",
    "name_en": "Jingzhou Shi",
    "location": {
      "longitude": "112.241865807",
      "latitude": "30.332590523"
    },
    "province": "湖北省"
  },
  {
    "code": "421100",
    "name": "黄冈市",
    "name_en": "Huanggang Shi",
    "location": {
      "longitude": "114.906618047",
      "latitude": "30.4461089379"
    },
    "province": "湖北省"
  },
  {
    "code": "421200",
    "name": "咸宁市",
    "name_en": "Xianning Xian",
    "location": {
      "longitude": "114.300060592",
      "latitude": "29.8806567577"
    },
    "province": "湖北省"
  },
  {
    "code": "421300",
    "name": "随州市",
    "name_en": "Suizhou Shi",
    "location": {
      "longitude": "113.379358364",
      "latitude": "31.7178576082"
    },
    "province": "湖北省"
  },
  {
    "code": "422800",
    "name": "恩施土家族苗族自治州",
    "name_en": "Enshi Tujiazu Miaozu Zizhizhou",
    "location": {
      "longitude": "109.491923304",
      "latitude": "30.2858883166"
    },
    "province": "湖北省"
  },
  {
    "code": "430100",
    "name": "长沙市",
    "name_en": "Changsha Shi",
    "location": {
      "longitude": "112.979352788",
      "latitude": "28.2134782309"
    },
    "province": "湖南省"
  },
  {
    "code": "430200",
    "name": "株洲市",
    "name_en": "Zhuzhou Shi",
    "location": {
      "longitude": "113.131695341",
      "latitude": "27.8274329277"
    },
    "province": "湖南省"
  },
  {
    "code": "430300",
    "name": "湘潭市",
    "name_en": "Xiangtan Shi",
    "location": {
      "longitude": "112.935555633",
      "latitude": "27.835095053"
    },
    "province": "湖南省"
  },
  {
    "code": "430400",
    "name": "衡阳市",
    "name_en": "Hengyang Shi",
    "location": {
      "longitude": "112.583818811",
      "latitude": "26.8981644154"
    },
    "province": "湖南省"
  },
  {
    "code": "430500",
    "name": "邵阳市",
    "name_en": "Shaoyang Shi",
    "location": {
      "longitude": "111.461525404",
      "latitude": "27.2368112449"
    },
    "province": "湖南省"
  },
  {
    "code": "430600",
    "name": "岳阳市",
    "name_en": "Yueyang Shi",
    "location": {
      "longitude": "113.146195519",
      "latitude": "29.3780070755"
    },
    "province": "湖南省"
  },
  {
    "code": "430700",
    "name": "常德市",
    "name_en": "Changde Shi",
    "location": {
      "longitude": "111.653718137",
      "latitude": "29.0121488552"
    },
    "province": "湖南省"
  },
  {
    "code": "430800",
    "name": "张家界市",
    "name_en": "Zhangjiajie Shi",
    "location": {
      "longitude": "110.481620157",
      "latitude": "29.1248893532"
    },
    "province": "湖南省"
  },
  {
    "code": "430900",
    "name": "益阳市",
    "name_en": "Yiyang Shi",
    "location": {
      "longitude": "112.366546645",
      "latitude": "28.5880877799"
    },
    "province": "湖南省"
  },
  {
    "code": "431000",
    "name": "郴州市",
    "name_en": "Chenzhou Shi",
    "location": {
      "longitude": "113.037704468",
      "latitude": "25.7822639757"
    },
    "province": "湖南省"
  },
  {
    "code": "431100",
    "name": "永州市",
    "name_en": "Yongzhou Shi",
    "location": {
      "longitude": "111.614647686",
      "latitude": "26.4359716468"
    },
    "province": "湖南省"
  },
  {
    "code": "431200",
    "name": "怀化市",
    "name_en": "Huaihua Shi",
    "location": {
      "longitude": "109.986958796",
      "latitude": "27.5574829012"
    },
    "province": "湖南省"
  },
  {
    "code": "431300",
    "name": "娄底市",
    "name_en": "Loudi Shi",
    "location": {
      "longitude": "111.996396357",
      "latitude": "27.7410733023"
    },
    "province": "湖南省"
  },
  {
    "code": "433100",
    "name": "湘西土家族苗族自治州",
    "name_en": "Xiangxi Tujiazu Miaozu Zizhizhou ",
    "location": {
      "longitude": "109.7457458",
      "latitude": "28.3179507937"
    },
    "province": "湖南省"
  },
  {
    "code": "440100",
    "name": "广州市",
    "name_en": "Guangzhou Shi",
    "location": {
      "longitude": "113.307649675",
      "latitude": "23.1200491021"
    },
    "province": "广东省"
  },
  {
    "code": "440200",
    "name": "韶关市",
    "name_en": "Shaoguan Shi",
    "location": {
      "longitude": "113.594461107",
      "latitude": "24.8029603119"
    },
    "province": "广东省"
  },
  {
    "code": "440300",
    "name": "深圳市",
    "name_en": "Shenzhen Shi",
    "location": {
      "longitude": "114.025973657",
      "latitude": "22.5460535462"
    },
    "province": "广东省"
  },
  {
    "code": "440400",
    "name": "珠海市",
    "name_en": "Zhuhai Shi",
    "location": {
      "longitude": "113.562447026",
      "latitude": "22.2569146461"
    },
    "province": "广东省"
  },
  {
    "code": "440500",
    "name": "汕头市",
    "name_en": "Shantou Shi",
    "location": {
      "longitude": "116.728650288",
      "latitude": "23.3839084533"
    },
    "province": "广东省"
  },
  {
    "code": "440600",
    "name": "佛山市",
    "name_en": "Foshan Shi",
    "location": {
      "longitude": "113.134025635",
      "latitude": "23.0350948405"
    },
    "province": "广东省"
  },
  {
    "code": "440700",
    "name": "江门市",
    "name_en": "Jiangmen Shi",
    "location": {
      "longitude": "113.078125341",
      "latitude": "22.5751167835"
    },
    "province": "广东省"
  },
  {
    "code": "440800",
    "name": "湛江市",
    "name_en": "Zhanjiang Shi",
    "location": {
      "longitude": "110.365067263",
      "latitude": "21.2574631038"
    },
    "province": "广东省"
  },
  {
    "code": "440900",
    "name": "茂名市",
    "name_en": "Maoming Shi",
    "location": {
      "longitude": "110.931245331",
      "latitude": "21.6682257188"
    },
    "province": "广东省"
  },
  {
    "code": "441200",
    "name": "肇庆市",
    "name_en": "Zhaoqing Shi",
    "location": {
      "longitude": "112.47965337",
      "latitude": "23.0786632829"
    },
    "province": "广东省"
  },
  {
    "code": "441300",
    "name": "惠州市",
    "name_en": "Huizhou Shi",
    "location": {
      "longitude": "114.41065808",
      "latitude": "23.1135398524"
    },
    "province": "广东省"
  },
  {
    "code": "441400",
    "name": "梅州市",
    "name_en": "Meizhou Shi",
    "location": {
      "longitude": "116.126403098",
      "latitude": "24.304570606"
    },
    "province": "广东省"
  },
  {
    "code": "441500",
    "name": "汕尾市",
    "name_en": "Shanwei Shi",
    "location": {
      "longitude": "115.372924289",
      "latitude": "22.7787305002"
    },
    "province": "广东省"
  },
  {
    "code": "441600",
    "name": "河源市",
    "name_en": "Heyuan Shi",
    "location": {
      "longitude": "114.713721476",
      "latitude": "23.7572508505"
    },
    "province": "广东省"
  },
  {
    "code": "441700",
    "name": "阳江市",
    "name_en": "Yangjiang Shi",
    "location": {
      "longitude": "111.977009756",
      "latitude": "21.8715173045"
    },
    "province": "广东省"
  },
  {
    "code": "441800",
    "name": "清远市",
    "name_en": "Qingyuan Shi",
    "location": {
      "longitude": "113.040773349",
      "latitude": "23.6984685504"
    },
    "province": "广东省"
  },
  {
    "code": "441900",
    "name": "东莞市",
    "name_en": "Dongguan Shi",
    "location": {
      "longitude": "113.763433991",
      "latitude": "23.0430238154"
    },
    "province": "广东省"
  },
  {
    "code": "442000",
    "name": "中山市",
    "name_en": "Zhongshan Shi",
    "location": {
      "longitude": "113.422060021",
      "latitude": "22.5451775145"
    },
    "province": "广东省"
  },
  {
    "code": "445100",
    "name": "潮州市",
    "name_en": "Chaozhou Shi",
    "location": {
      "longitude": "116.630075991",
      "latitude": "23.6618116765"
    },
    "province": "广东省"
  },
  {
    "code": "445200",
    "name": "揭阳市",
    "name_en": "Jieyang Shi",
    "location": {
      "longitude": "116.379500855",
      "latitude": "23.5479994669"
    },
    "province": "广东省"
  },
  {
    "code": "445300",
    "name": "云浮市",
    "name_en": "Yunfu Shi",
    "location": {
      "longitude": "112.050945959",
      "latitude": "22.9379756855"
    },
    "province": "广东省"
  },
  {
    "code": "450100",
    "name": "南宁市",
    "name_en": "Nanning Shi",
    "location": {
      "longitude": "108.297233556",
      "latitude": "22.8064929356"
    },
    "province": "广西壮族自治区"
  },
  {
    "code": "450200",
    "name": "柳州市",
    "name_en": "Liuzhou Shi",
    "location": {
      "longitude": "109.42240181",
      "latitude": "24.3290533525"
    },
    "province": "广西壮族自治区"
  },
  {
    "code": "450300",
    "name": "桂林市",
    "name_en": "Guilin Shi",
    "location": {
      "longitude": "110.260920147",
      "latitude": "25.262901246"
    },
    "province": "广西壮族自治区"
  },
  {
    "code": "450400",
    "name": "梧州市",
    "name_en": "Wuzhou Shi",
    "location": {
      "longitude": "111.30547195",
      "latitude": "23.4853946367"
    },
    "province": "广西壮族自治区"
  },
  {
    "code": "450500",
    "name": "北海市",
    "name_en": "Beihai Shi",
    "location": {
      "longitude": "109.122627919",
      "latitude": "21.472718235"
    },
    "province": "广西壮族自治区"
  },
  {
    "code": "450600",
    "name": "防城港市",
    "name_en": "Fangchenggang Shi",
    "location": {
      "longitude": "108.351791153",
      "latitude": "21.6173984705"
    },
    "province": "广西壮族自治区"
  },
  {
    "code": "450700",
    "name": "钦州市",
    "name_en": "Qinzhou Shi",
    "location": {
      "longitude": "108.638798056",
      "latitude": "21.9733504653"
    },
    "province": "广西壮族自治区"
  },
  {
    "code": "450800",
    "name": "贵港市",
    "name_en": "Guigang Shi",
    "location": {
      "longitude": "109.613707557",
      "latitude": "23.1033731644"
    },
    "province": "广西壮族自治区"
  },
  {
    "code": "450900",
    "name": "玉林市",
    "name_en": "Yulin Shi",
    "location": {
      "longitude": "110.151676316",
      "latitude": "22.6439736084"
    },
    "province": "广西壮族自治区"
  },
  {
    "code": "451000",
    "name": "百色市",
    "name_en": "Baise Shi",
    "location": {
      "longitude": "106.631821404",
      "latitude": "23.9015123679"
    },
    "province": "广西壮族自治区"
  },
  {
    "code": "451100",
    "name": "贺州市",
    "name_en": "Hezhou Shi",
    "location": {
      "longitude": "111.552594179",
      "latitude": "24.4110535471"
    },
    "province": "广西壮族自治区"
  },
  {
    "code": "451200",
    "name": "河池市",
    "name_en": "Hechi Shi",
    "location": {
      "longitude": "108.069947709",
      "latitude": "24.6995207829"
    },
    "province": "广西壮族自治区"
  },
  {
    "code": "451300",
    "name": "来宾市",
    "name_en": "Laibin Shi",
    "location": {
      "longitude": "109.231816505",
      "latitude": "23.7411659265"
    },
    "province": "广西壮族自治区"
  },
  {
    "code": "451400",
    "name": "崇左市",
    "name_en": "Chongzuo Shi",
    "location": {
      "longitude": "107.357322038",
      "latitude": "22.4154552965"
    },
    "province": "广西壮族自治区"
  },
  {
    "code": "460100",
    "name": "海口市",
    "name_en": "Haikou Shi",
    "location": {
      "longitude": "110.330801848",
      "latitude": "20.022071277"
    },
    "province": "海南省"
  },
  {
    "code": "460200",
    "name": "三亚市",
    "name_en": "Sanya Shi",
    "location": {
      "longitude": "109.522771281",
      "latitude": "18.2577759149"
    },
    "province": "海南省"
  },
  {
    "code": "500100",
    "name": "重庆市",
    "name_en": "Chongqing",
    "location": {
      "longitude": "106.530635013",
      "latitude": "29.5446061089"
    },
    "province": "重庆"
  },
  {
    "code": "510100",
    "name": "成都市",
    "name_en": "Chengdu Shi",
    "location": {
      "longitude": "104.067923463",
      "latitude": "30.6799428454"
    },
    "province": "四川省"
  },
  {
    "code": "510300",
    "name": "自贡市",
    "name_en": "Zigong Shi",
    "location": {
      "longitude": "104.776071339",
      "latitude": "29.3591568895"
    },
    "province": "四川省"
  },
  {
    "code": "510400",
    "name": "攀枝花市",
    "name_en": "Panzhihua Shi",
    "location": {
      "longitude": "101.722423152",
      "latitude": "26.5875712571"
    },
    "province": "四川省"
  },
  {
    "code": "510500",
    "name": "泸州市",
    "name_en": "Luzhou Shi",
    "location": {
      "longitude": "105.443970289",
      "latitude": "28.8959298039"
    },
    "province": "四川省"
  },
  {
    "code": "510600",
    "name": "德阳市",
    "name_en": "Deyang Shi",
    "location": {
      "longitude": "104.402397818",
      "latitude": "31.1311396527"
    },
    "province": "四川省"
  },
  {
    "code": "510700",
    "name": "绵阳市",
    "name_en": "Mianyang Shi",
    "location": {
      "longitude": "104.705518975",
      "latitude": "31.5047012581"
    },
    "province": "四川省"
  },
  {
    "code": "510800",
    "name": "广元市",
    "name_en": "Guangyuan Shi",
    "location": {
      "longitude": "105.81968694",
      "latitude": "32.4410401584"
    },
    "province": "四川省"
  },
  {
    "code": "510900",
    "name": "遂宁市",
    "name_en": "Suining Shi",
    "location": {
      "longitude": "105.564887792",
      "latitude": "30.5574913504"
    },
    "province": "四川省"
  },
  {
    "code": "511000",
    "name": "内江市",
    "name_en": "Neijiang Shi",
    "location": {
      "longitude": "105.073055992",
      "latitude": "29.5994615348"
    },
    "province": "四川省"
  },
  {
    "code": "511100",
    "name": "乐山市",
    "name_en": "Leshan Shi",
    "location": {
      "longitude": "103.760824239",
      "latitude": "29.6009576111"
    },
    "province": "四川省"
  },
  {
    "code": "511300",
    "name": "南充市",
    "name_en": "Nanchong Shi",
    "location": {
      "longitude": "106.105553984",
      "latitude": "30.8009651682"
    },
    "province": "四川省"
  },
  {
    "code": "511400",
    "name": "眉山市",
    "name_en": "Meishan Shi",
    "location": {
      "longitude": "103.841429563",
      "latitude": "30.0611150799"
    },
    "province": "四川省"
  },
  {
    "code": "511500",
    "name": "宜宾市",
    "name_en": "Yibin Shi",
    "location": {
      "longitude": "104.633019062",
      "latitude": "28.7696747963"
    },
    "province": "四川省"
  },
  {
    "code": "511600",
    "name": "广安市",
    "name_en": "Guang,an Shi",
    "location": {
      "longitude": "106.635720331",
      "latitude": "30.4639838879"
    },
    "province": "四川省"
  },
  {
    "code": "511700",
    "name": "达州市",
    "name_en": "Dazhou Shi",
    "location": {
      "longitude": "107.494973447",
      "latitude": "31.2141988589"
    },
    "province": "四川省"
  },
  {
    "code": "511800",
    "name": "雅安市",
    "name_en": "Ya,an Shi",
    "location": {
      "longitude": "103.009356466",
      "latitude": "29.9997163371"
    },
    "province": "四川省"
  },
  {
    "code": "511900",
    "name": "巴中市",
    "name_en": "Bazhong Shi",
    "location": {
      "longitude": "106.757915842",
      "latitude": "31.8691891592"
    },
    "province": "四川省"
  },
  {
    "code": "512000",
    "name": "资阳市",
    "name_en": "Ziyang Shi",
    "location": {
      "longitude": "104.635930302",
      "latitude": "30.132191434"
    },
    "province": "四川省"
  },
  {
    "code": "513200",
    "name": "阿坝藏族羌族自治州",
    "name_en": "Aba(Ngawa) Zangzu Qiangzu Zizhizhou",
    "location": {
      "longitude": "102.228564689",
      "latitude": "31.9057628583"
    },
    "province": "四川省"
  },
  {
    "code": "513300",
    "name": "甘孜藏族自治州",
    "name_en": "Garze Zangzu Zizhizhou",
    "location": {
      "longitude": "101.969232063",
      "latitude": "30.0551441144"
    },
    "province": "四川省"
  },
  {
    "code": "513400",
    "name": "凉山彝族自治州",
    "name_en": "Liangshan Yizu Zizhizhou",
    "location": {
      "longitude": "102.259590803",
      "latitude": "27.8923929037"
    },
    "province": "四川省"
  },
  {
    "code": "520100",
    "name": "贵阳市",
    "name_en": "Guiyang Shi",
    "location": {
      "longitude": "106.709177096",
      "latitude": "26.6299067414"
    },
    "province": "贵州省"
  },
  {
    "code": "520200",
    "name": "六盘水市",
    "name_en": "Liupanshui Shi",
    "location": {
      "longitude": "104.85208676",
      "latitude": "26.5918660603"
    },
    "province": "贵州省"
  },
  {
    "code": "520300",
    "name": "遵义市",
    "name_en": "Zunyi Shi",
    "location": {
      "longitude": "106.931260316",
      "latitude": "27.6999613771"
    },
    "province": "贵州省"
  },
  {
    "code": "520400",
    "name": "安顺市",
    "name_en": "Anshun Xian",
    "location": {
      "longitude": "105.928269966",
      "latitude": "26.2285945777"
    },
    "province": "贵州省"
  },
  {
    "code": "522200",
    "name": "铜仁市",
    "name_en": "Tongren Shi",
    "location": {
      "longitude": "109.168558028",
      "latitude": "27.6749026906"
    },
    "province": "贵州省"
  },
  {
    "code": "522300",
    "name": "黔西南布依族苗族自治州",
    "name_en": "Qianxinan Buyeizu Zizhizhou",
    "location": {
      "longitude": "104.900557798",
      "latitude": "25.0951480559"
    },
    "province": "贵州省"
  },
  {
    "code": "522400",
    "name": "毕节市",
    "name_en": "Bijie Shi",
    "location": {
      "longitude": "105.333323371",
      "latitude": "27.4085621313"
    },
    "province": "贵州省"
  },
  {
    "code": "522600",
    "name": "黔东南苗族侗族自治州",
    "name_en": "Qiandongnan Miaozu Dongzu Zizhizhou",
    "location": {
      "longitude": "107.985352573",
      "latitude": "26.5839917665"
    },
    "province": "贵州省"
  },
  {
    "code": "522700",
    "name": "黔南布依族苗族自治州",
    "name_en": "Qiannan Buyeizu Miaozu Zizhizhou",
    "location": {
      "longitude": "107.52320511",
      "latitude": "26.2645359974"
    },
    "province": "贵州省"
  },
  {
    "code": "530100",
    "name": "昆明市",
    "name_en": "Kunming Shi",
    "location": {
      "longitude": "102.714601139",
      "latitude": "25.0491531005"
    },
    "province": "云南省"
  },
  {
    "code": "530300",
    "name": "曲靖市",
    "name_en": "Qujing Shi",
    "location": {
      "longitude": "103.782538888",
      "latitude": "25.5207581429"
    },
    "province": "云南省"
  },
  {
    "code": "530400",
    "name": "玉溪市",
    "name_en": "Yuxi Shi",
    "location": {
      "longitude": "102.545067892",
      "latitude": "24.3704471344"
    },
    "province": "云南省"
  },
  {
    "code": "530500",
    "name": "保山市",
    "name_en": "Baoshan Shi",
    "location": {
      "longitude": "99.1779956133",
      "latitude": "25.1204891962"
    },
    "province": "云南省"
  },
  {
    "code": "530600",
    "name": "昭通市",
    "name_en": "Zhaotong Shi",
    "location": {
      "longitude": "103.725020656",
      "latitude": "27.3406329636"
    },
    "province": "云南省"
  },
  {
    "code": "530700",
    "name": "丽江市",
    "name_en": "Lijiang Shi",
    "location": {
      "longitude": "100.229628399",
      "latitude": "26.8753510895"
    },
    "province": "云南省"
  },
  {
    "code": "530800",
    "name": "普洱市",
    "name_en": "Simao Shi",
    "location": {
      "longitude": "100.98005773",
      "latitude": "22.7887777801"
    },
    "province": "云南省"
  },
  {
    "code": "530900",
    "name": "临沧市",
    "name_en": "Lincang Shi",
    "location": {
      "longitude": "100.092612914",
      "latitude": "23.8878061038"
    },
    "province": "云南省"
  },
  {
    "code": "532300",
    "name": "楚雄彝族自治州",
    "name_en": "Chuxiong Yizu Zizhizhou",
    "location": {
      "longitude": "101.529382239",
      "latitude": "25.0663556742"
    },
    "province": "云南省"
  },
  {
    "code": "532500",
    "name": "红河哈尼族彝族自治州",
    "name_en": "Honghe Hanizu Yizu Zizhizhou",
    "location": {
      "longitude": "103.384064757",
      "latitude": "23.3677175165"
    },
    "province": "云南省"
  },
  {
    "code": "532600",
    "name": "文山壮族苗族自治州",
    "name_en": "Wenshan Zhuangzu Miaozu Zizhizhou",
    "location": {
      "longitude": "104.246294318",
      "latitude": "23.3740868504"
    },
    "province": "云南省"
  },
  {
    "code": "532800",
    "name": "西双版纳傣族自治州",
    "name_en": "Xishuangbanna Daizu Zizhizhou",
    "location": {
      "longitude": "100.803038275",
      "latitude": "22.0094330022"
    },
    "province": "云南省"
  },
  {
    "code": "532900",
    "name": "大理白族自治州",
    "name_en": "Dali Baizu Zizhizhou",
    "location": {
      "longitude": "100.223674789",
      "latitude": "25.5968996394"
    },
    "province": "云南省"
  },
  {
    "code": "533100",
    "name": "德宏傣族景颇族自治州",
    "name_en": "Dehong Daizu Jingpozu Zizhizhou",
    "location": {
      "longitude": "98.5894342874",
      "latitude": "24.441239663"
    },
    "province": "云南省"
  },
  {
    "code": "533300",
    "name": "怒江傈僳族自治州",
    "name_en": "Nujiang Lisuzu Zizhizhou",
    "location": {
      "longitude": "98.8599320425",
      "latitude": "25.8606769782"
    },
    "province": "云南省"
  },
  {
    "code": "533400",
    "name": "迪庆藏族自治州",
    "name_en": "Deqen Zangzu Zizhizhou",
    "location": {
      "longitude": "99.7136815989",
      "latitude": "27.8310294612"
    },
    "province": "云南省"
  },
  {
    "code": "540100",
    "name": "拉萨市",
    "name_en": "Lhasa Shi",
    "location": {
      "longitude": "91.111890896",
      "latitude": "29.6625570621"
    },
    "province": "西藏自治区"
  },
  {
    "code": "542100",
    "name": "昌都地区",
    "name_en": "Qamdo Diqu",
    "location": {
      "longitude": "97.18558158",
      "latitude": "31.1405756319"
    },
    "province": "西藏自治区"
  },
  {
    "code": "542200",
    "name": "山南地区",
    "name_en": "Shannan Diqu",
    "location": {
      "longitude": "91.7506438744",
      "latitude": "29.2290269317"
    },
    "province": "西藏自治区"
  },
  {
    "code": "542300",
    "name": "日喀则地区",
    "name_en": "Xigaze Diqu",
    "location": {
      "longitude": "88.8914855677",
      "latitude": "29.2690232039"
    },
    "province": "西藏自治区"
  },
  {
    "code": "542400",
    "name": "那曲地区",
    "name_en": "Nagqu Diqu",
    "location": {
      "longitude": "92.0670183689",
      "latitude": "31.4806798301"
    },
    "province": "西藏自治区"
  },
  {
    "code": "542500",
    "name": "阿里地区",
    "name_en": "Ngari Diqu",
    "location": {
      "longitude": "81.1076686895",
      "latitude": "30.4045565883"
    },
    "province": "西藏自治区"
  },
  {
    "code": "542600",
    "name": "林芝地区",
    "name_en": "Nyingchi Diqu",
    "location": {
      "longitude": "94.3499854582",
      "latitude": "29.6669406258"
    },
    "province": "西藏自治区"
  },
  {
    "code": "610100",
    "name": "西安市",
    "name_en": "Xi,an Shi",
    "location": {
      "longitude": "108.953098279",
      "latitude": "34.2777998978"
    },
    "province": "陕西省"
  },
  {
    "code": "610200",
    "name": "铜川市",
    "name_en": "Tongchuan Shi",
    "location": {
      "longitude": "108.968067013",
      "latitude": "34.9083676964"
    },
    "province": "陕西省"
  },
  {
    "code": "610300",
    "name": "宝鸡市",
    "name_en": "Baoji Shi",
    "location": {
      "longitude": "107.170645452",
      "latitude": "34.3640808097"
    },
    "province": "陕西省"
  },
  {
    "code": "610400",
    "name": "咸阳市",
    "name_en": "Xianyang Shi",
    "location": {
      "longitude": "108.707509278",
      "latitude": "34.345372996"
    },
    "province": "陕西省"
  },
  {
    "code": "610500",
    "name": "渭南市",
    "name_en": "Weinan Shi",
    "location": {
      "longitude": "109.483932697",
      "latitude": "34.5023579758"
    },
    "province": "陕西省"
  },
  {
    "code": "610600",
    "name": "延安市",
    "name_en": "Yan,an Shi",
    "location": {
      "longitude": "109.500509757",
      "latitude": "36.6033203523"
    },
    "province": "陕西省"
  },
  {
    "code": "610700",
    "name": "汉中市",
    "name_en": "Hanzhong Shi",
    "location": {
      "longitude": "107.045477629",
      "latitude": "33.0815689782"
    },
    "province": "陕西省"
  },
  {
    "code": "610800",
    "name": "榆林市",
    "name_en": "Yulin Shi",
    "location": {
      "longitude": "109.745925744",
      "latitude": "38.2794392401"
    },
    "province": "陕西省"
  },
  {
    "code": "610900",
    "name": "安康市",
    "name_en": "Ankang Shi",
    "location": {
      "longitude": "109.038044563",
      "latitude": "32.70437045"
    },
    "province": "陕西省"
  },
  {
    "code": "611000",
    "name": "商洛市",
    "name_en": "Shangluo Shi",
    "location": {
      "longitude": "109.934208154",
      "latitude": "33.8739073951"
    },
    "province": "陕西省"
  },
  {
    "code": "620100",
    "name": "兰州市",
    "name_en": "Lanzhou Shi",
    "location": {
      "longitude": "103.823305441",
      "latitude": "36.064225525"
    },
    "province": "甘肃省"
  },
  {
    "code": "620200",
    "name": "嘉峪关市",
    "name_en": "Jiayuguan Shi",
    "location": {
      "longitude": "98.2816345853",
      "latitude": "39.8023973267"
    },
    "province": "甘肃省"
  },
  {
    "code": "620300",
    "name": "金昌市",
    "name_en": "Jinchang Shi",
    "location": {
      "longitude": "102.208126263",
      "latitude": "38.5160717995"
    },
    "province": "甘肃省"
  },
  {
    "code": "620400",
    "name": "白银市",
    "name_en": "Baiyin Shi",
    "location": {
      "longitude": "104.171240904",
      "latitude": "36.5466817062"
    },
    "province": "甘肃省"
  },
  {
    "code": "620500",
    "name": "天水市",
    "name_en": "Tianshui Shi",
    "location": {
      "longitude": "105.736931623",
      "latitude": "34.5843194189"
    },
    "province": "甘肃省"
  },
  {
    "code": "620600",
    "name": "武威市",
    "name_en": "Wuwei Shi",
    "location": {
      "longitude": "102.640147343",
      "latitude": "37.9331721429"
    },
    "province": "甘肃省"
  },
  {
    "code": "620700",
    "name": "张掖市",
    "name_en": "Zhangye Shi",
    "location": {
      "longitude": "100.459891869",
      "latitude": "38.939320297"
    },
    "province": "甘肃省"
  },
  {
    "code": "620800",
    "name": "平凉市",
    "name_en": "Pingliang Shi",
    "location": {
      "longitude": "106.688911157",
      "latitude": "35.55011019"
    },
    "province": "甘肃省"
  },
  {
    "code": "620900",
    "name": "酒泉市",
    "name_en": "Jiuquan Shi",
    "location": {
      "longitude": "98.5084145062",
      "latitude": "39.7414737682"
    },
    "province": "甘肃省"
  },
  {
    "code": "621000",
    "name": "庆阳市",
    "name_en": "Qingyang Shi",
    "location": {
      "longitude": "107.644227087",
      "latitude": "35.7268007545"
    },
    "province": "甘肃省"
  },
  {
    "code": "621100",
    "name": "定西市",
    "name_en": "Dingxi Shi",
    "location": {
      "longitude": "104.626637601",
      "latitude": "35.5860562418"
    },
    "province": "甘肃省"
  },
  {
    "code": "621200",
    "name": "陇南市",
    "name_en": "Longnan Shi",
    "location": {
      "longitude": "104.934573406",
      "latitude": "33.3944799729"
    },
    "province": "甘肃省"
  },
  {
    "code": "622900",
    "name": "临夏回族自治州",
    "name_en": "Linxia Huizu Zizhizhou ",
    "location": {
      "longitude": "103.215249178",
      "latitude": "35.5985143488"
    },
    "province": "甘肃省"
  },
  {
    "code": "623000",
    "name": "甘南藏族自治州",
    "name_en": "Gannan Zangzu Zizhizhou",
    "location": {
      "longitude": "102.917442486",
      "latitude": "34.9922111784"
    },
    "province": "甘肃省"
  },
  {
    "code": "630100",
    "name": "西宁市",
    "name_en": "Xining Shi",
    "location": {
      "longitude": "101.76792099",
      "latitude": "36.640738612"
    },
    "province": "青海省"
  },
  {
    "code": "632100",
    "name": "海东地区",
    "name_en": "Haidong Diqu",
    "location": {
      "longitude": "102.085206987",
      "latitude": "36.5176101677"
    },
    "province": "青海省"
  },
  {
    "code": "632200",
    "name": "海北藏族自治州",
    "name_en": "Haibei Zangzu Zizhizhou",
    "location": {
      "longitude": "100.879802174",
      "latitude": "36.9606541011"
    },
    "province": "青海省"
  },
  {
    "code": "632300",
    "name": "黄南藏族自治州",
    "name_en": "Huangnan Zangzu Zizhizhou",
    "location": {
      "longitude": "102.007600308",
      "latitude": "35.5228515517"
    },
    "province": "青海省"
  },
  {
    "code": "632500",
    "name": "海南藏族自治州",
    "name_en": "Hainan Zangzu Zizhizhou",
    "location": {
      "longitude": "100.624066094",
      "latitude": "36.2843638038"
    },
    "province": "青海省"
  },
  {
    "code": "632600",
    "name": "果洛藏族自治州",
    "name_en": "Golog Zangzu Zizhizhou",
    "location": {
      "longitude": "100.223722769",
      "latitude": "34.4804845846"
    },
    "province": "青海省"
  },
  {
    "code": "632700",
    "name": "玉树藏族自治州",
    "name_en": "Yushu Zangzu Zizhizhou",
    "location": {
      "longitude": "97.0133161374",
      "latitude": "33.0062399097"
    },
    "province": "青海省"
  },
  {
    "code": "632800",
    "name": "海西蒙古族藏族自治州",
    "name_en": "Haixi Mongolzu Zangzu Zizhizhou",
    "location": {
      "longitude": "97.3426254153",
      "latitude": "37.3737990706"
    },
    "province": "青海省"
  },
  {
    "code": "640100",
    "name": "银川市",
    "name_en": "Yinchuan Shi",
    "location": {
      "longitude": "106.206478608",
      "latitude": "38.5026210119"
    },
    "province": "宁夏回族自治区"
  },
  {
    "code": "640200",
    "name": "石嘴山市",
    "name_en": "Shizuishan Shi",
    "location": {
      "longitude": "106.379337202",
      "latitude": "39.0202232836"
    },
    "province": "宁夏回族自治区"
  },
  {
    "code": "640300",
    "name": "吴忠市",
    "name_en": "Wuzhong Shi",
    "location": {
      "longitude": "106.208254199",
      "latitude": "37.9935610029"
    },
    "province": "宁夏回族自治区"
  },
  {
    "code": "640400",
    "name": "固原市",
    "name_en": "Guyuan Shi",
    "location": {
      "longitude": "106.285267996",
      "latitude": "36.0215234807"
    },
    "province": "宁夏回族自治区"
  },
  {
    "code": "640500",
    "name": "中卫市",
    "name_en": "Zhongwei Shi",
    "location": {
      "longitude": "105.196754199",
      "latitude": "37.5211241916"
    },
    "province": "宁夏回族自治区"
  },
  {
    "code": "650100",
    "name": "乌鲁木齐市",
    "name_en": "Urumqi Shi",
    "location": {
      "longitude": "87.5649877411",
      "latitude": "43.8403803472"
    },
    "province": "新疆维吾尔自治区"
  },
  {
    "code": "650200",
    "name": "克拉玛依市",
    "name_en": "Karamay Shi",
    "location": {
      "longitude": "84.8811801861",
      "latitude": "45.5943310667"
    },
    "province": "新疆维吾尔自治区"
  },
  {
    "code": "652100",
    "name": "吐鲁番地区",
    "name_en": "Turpan Diqu",
    "location": {
      "longitude": "89.1815948657",
      "latitude": "42.9604700169"
    },
    "province": "新疆维吾尔自治区"
  },
  {
    "code": "652200",
    "name": "哈密地区",
    "name_en": "Hami(kumul) Diqu",
    "location": {
      "longitude": "93.5283550928",
      "latitude": "42.8585963324"
    },
    "province": "新疆维吾尔自治区"
  },
  {
    "code": "652300",
    "name": "昌吉回族自治州",
    "name_en": "Changji Huizu Zizhizhou",
    "location": {
      "longitude": "87.2960381257",
      "latitude": "44.0070578985"
    },
    "province": "新疆维吾尔自治区"
  },
  {
    "code": "652700",
    "name": "博尔塔拉蒙古自治州",
    "name_en": "Bortala Monglo Zizhizhou",
    "location": {
      "longitude": "82.0524362672",
      "latitude": "44.9136513743"
    },
    "province": "新疆维吾尔自治区"
  },
  {
    "code": "652800",
    "name": "巴音郭楞蒙古自治州",
    "name_en": "bayinguolengmengguzizhizhou",
    "location": {
      "longitude": "86.15157",
      "latitude": "41.770229"
    },
    "province": "新疆维吾尔自治区"
  },
  {
    "code": "652900",
    "name": "阿克苏地区",
    "name_en": "Aksu Diqu",
    "location": {
      "longitude": "80.2698461793",
      "latitude": "41.1717309015"
    },
    "province": "新疆维吾尔自治区"
  },
  {
    "code": "653000",
    "name": "克孜勒苏柯尔克孜自治州",
    "name_en": "Kizilsu Kirgiz Zizhizhou",
    "location": {
      "longitude": "76.1375644775",
      "latitude": "39.7503455778"
    },
    "province": "新疆维吾尔自治区"
  },
  {
    "code": "653100",
    "name": "喀什地区",
    "name_en": "Kashi(Kaxgar) Diqu",
    "location": {
      "longitude": "75.9929732675",
      "latitude": "39.4706271887"
    },
    "province": "新疆维吾尔自治区"
  },
  {
    "code": "653200",
    "name": "和田地区",
    "name_en": "Hotan Diqu",
    "location": {
      "longitude": "79.9302386372",
      "latitude": "37.1167744927"
    },
    "province": "新疆维吾尔自治区"
  },
  {
    "code": "654000",
    "name": "伊犁哈萨克自治州",
    "name_en": "Yli Kazak Zizhizhou",
    "location": {
      "longitude": "81.2978535304",
      "latitude": "43.9222480963"
    },
    "province": "新疆维吾尔自治区"
  },
  {
    "code": "654200",
    "name": "塔城地区",
    "name_en": "Tacheng(Qoqek) Diqu",
    "location": {
      "longitude": "82.9748805837",
      "latitude": "46.7586836297"
    },
    "province": "新疆维吾尔自治区"
  },
  {
    "code": "654300",
    "name": "阿勒泰地区",
    "name_en": "Altay Diqu",
    "location": {
      "longitude": "88.1379154871",
      "latitude": "47.8397444862"
    },
    "province": "新疆维吾尔自治区"
  }
]